{"errorcode":"0","errormessage":"","numberofresults":4,"route":"142","timestamp":"30\/07\/2018 10:13:56","results":[{"operator":"bac","origin":"Portmarnock","originlocalized":"Port Mearnóg","destination":"Rathmines (Palmerston Park)","destinationlocalized":"","lastupdated":"27\/06\/2016 08:50:05","stops":[{"stopid":"1070","displaystopid":"1070","shortname":"Rathmines Road","shortnamelocalized":"Bóthar Ráth Maonais","fullname":"Williams Park","fullnamelocalized":"","latitude":"53.324969","longitude":"-6.2653","operators":[{"name":"bac","routes":["142"]}]},{"stopid":"1071","displaystopid":"1071","shortname":"Rathmines Road","shortnamelocalized":"Bóthar Ráth Maonais","fullname":"Military Road","fullnamelocalized":"","latitude":"53.32729","longitude":"-6.26485","operators":[{"name":"bac","routes":["142"]}]},{"stopid":"1072","displaystopid":"1072","shortname":"Richmond Street","shortnamelocalized":"Sráid Richmond","fullname":"Lennox Street","fullnamelocalized":"","latitude":"53.331036","longitude":"-6.264575","operators":[{"name":"bac","routes":["142"]}]},{"stopid":"1073","displaystopid":"1073","shortname":"Malahide Road","shortnamelocalized":"Bóthar Mhullach Íde","fullname":"Seabury Road","fullnamelocalized":"","latitude":"53.450775","longitude":"-6.187407","operators":[{"name":"bac","routes":["142"]}]},{"stopid":"1353","displaystopid":"1353","shortname":"Camden Street","shortnamelocalized":"Sráid Camden","fullname":"Camden Street","fullnamelocalized":"","latitude":"53.33601","longitude":"-6.265415","operators":[{"name":"bac","routes":["142"]}]},{"stopid":"1354","displaystopid":"1354","shortname":"Aungier Street","shortnamelocalized":"Sráid Aungier","fullname":"Aungier Street","fullnamelocalized":"","latitude":"53.33905","longitude":"-6.266066944","operators":[{"name":"bac","routes":["142"]}]},{"stopid":"2500","displaystopid":"2500","shortname":"North Wall Quay","shortnamelocalized":"Cé an Phoirt Tdh","fullname":"North Wall Quay","fullnamelocalized":"","latitude":"53.347755","longitude":"-6.242365","operators":[{"name":"bac","routes":["142"]}]},{"stopid":"2501","displaystopid":"2501","shortname":"North Wall Quay","shortnamelocalized":"Cé an Phoirt Tdh","fullname":"North Wall Quay","fullnamelocalized":"","latitude":"53.34737306","longitude":"-6.236341944","operators":[{"name":"bac","routes":["142"]}]},{"stopid":"2507","displaystopid":"2507","shortname":"East Wall Rd","shortnamelocalized":"Br an Phoirt Thoir","fullname":"East Wall Rd","fullnamelocalized":"","latitude":"53.34819806","longitude":"-6.227101944","operators":[{"name":"bac","routes":["142"]}]},{"stopid":"3011","displaystopid":"3011","shortname":"Bird Avenue","shortnamelocalized":"Ascaill na nÉan","fullname":"Bird Avenue","fullnamelocalized":"","latitude":"53.30514306","longitude":"-6.244386944","operators":[{"name":"bac","routes":["142"]}]},{"stopid":"407","displaystopid":"407","shortname":"Custom House Quay","shortnamelocalized":"Cé Theach an Chusta","fullname":"Custom House Quay","fullnamelocalized":"","latitude":"53.34833306","longitude":"-6.253853056","operators":[{"name":"bac","routes":["142"]}]},{"stopid":"4528","displaystopid":"4528","shortname":"Rathmines Road","shortnamelocalized":"Bóthar Ráth Maonais","fullname":"Rathmines Road","fullnamelocalized":"","latitude":"53.32886111","longitude":"-6.264568889","operators":[{"name":"bac","routes":["142"]}]},{"stopid":"7195","displaystopid":"7195","shortname":"Holywell Link Rd","shortnamelocalized":"Nbr An Tobair Naofa","fullname":"Holywell Link Rd","fullnamelocalized":"","latitude":"53.44731611","longitude":"-6.207843056","operators":[{"name":"bac","routes":["142"]}]},{"stopid":"7197","displaystopid":"7197","shortname":"Holywell","shortnamelocalized":"An Tobar Naofa","fullname":"Holywell","fullnamelocalized":"","latitude":"53.44500694","longitude":"-6.21228","operators":[{"name":"bac","routes":["142"]}]},{"stopid":"1062","displaystopid":"1062","shortname":"Milltown Road","shortnamelocalized":"Br Bhaile an Mhuili","fullname":"Churchtown Road","fullnamelocalized":"","latitude":"53.308257","longitude":"-6.255304","operators":[{"name":"bac","routes":["142"]}]},{"stopid":"1063","displaystopid":"1063","shortname":"Milltown Road","shortnamelocalized":"Br Bhaile an Mhuili","fullname":"South Hill","fullnamelocalized":"","latitude":"53.308568","longitude":"-6.258839","operators":[{"name":"bac","routes":["142"]}]},{"stopid":"1064","displaystopid":"1064","shortname":"Dartry Road","shortnamelocalized":"Bóthar Dhartrai","fullname":"Orwell Park","fullnamelocalized":"","latitude":"53.309427","longitude":"-6.260904","operators":[{"name":"bac","routes":["142"]}]},{"stopid":"1065","displaystopid":"1065","shortname":"Dartry Road","shortnamelocalized":"Bóthar Dhartrai","fullname":"Sunbury Gardens","fullnamelocalized":"","latitude":"53.311827","longitude":"-6.262764","operators":[{"name":"bac","routes":["142"]}]},{"stopid":"1066","displaystopid":"1066","shortname":"Rathmines Rd.","shortnamelocalized":"Br Ráth Maonais","fullname":"Highfield Road","fullnamelocalized":"","latitude":"53.313753","longitude":"-6.26407","operators":[{"name":"bac","routes":["142"]}]},{"stopid":"1067","displaystopid":"1067","shortname":"Rathmines Rd","shortnamelocalized":"Br Ráth Maonais","fullname":"Maxwell Road","fullnamelocalized":"","latitude":"53.317045","longitude":"-6.265212","operators":[{"name":"bac","routes":["142"]}]},{"stopid":"1068","displaystopid":"1068","shortname":"Rathmines Road","shortnamelocalized":"Bóthar Ráth Maonais","fullname":"Rathmines Avenue","fullnamelocalized":"","latitude":"53.320556","longitude":"-6.265369","operators":[{"name":"bac","routes":["142"]}]},{"stopid":"1069","displaystopid":"1069","shortname":"Rathmines Road","shortnamelocalized":"Bóthar Ráth Maonais","fullname":"Leinster Road","fullnamelocalized":"","latitude":"53.323288","longitude":"-6.265598","operators":[{"name":"bac","routes":["142"]}]},{"stopid":"2498","displaystopid":"2498","shortname":"Custom House Quay","shortnamelocalized":"Cé Theach an Chusta","fullname":"Custom House Quay","fullnamelocalized":"","latitude":"53.34824306","longitude":"-6.250095","operators":[{"name":"bac","routes":["142"]}]},{"stopid":"2499","displaystopid":"2499","shortname":"Custom House Quay","shortnamelocalized":"Cé Theach an Chusta","fullname":"Custom House Quay","fullnamelocalized":"","latitude":"53.34806389","longitude":"-6.247145","operators":[{"name":"bac","routes":["142"]}]},{"stopid":"2896","displaystopid":"2896","shortname":"Dundrum Road","shortnamelocalized":"Bóthar Dhún Droma","fullname":"Dundrum Road","fullnamelocalized":"","latitude":"53.30598806","longitude":"-6.246025","operators":[{"name":"bac","routes":["142"]}]},{"stopid":"2897","displaystopid":"2897","shortname":"Dundrum Road","shortnamelocalized":"Bóthar Dhún Droma","fullname":"Dundrum Road","fullnamelocalized":"","latitude":"53.30819306","longitude":"-6.246615","operators":[{"name":"bac","routes":["142"]}]},{"stopid":"6052","displaystopid":"6052","shortname":"Blackwood Lane","shortnamelocalized":"Lána na Coille Duib","fullname":"Portmarnock Sports Club","fullnamelocalized":"","latitude":"53.434825","longitude":"-6.137652","operators":[{"name":"bac","routes":["142"]}]},{"stopid":"6055","displaystopid":"6055","shortname":"Malahide Road","shortnamelocalized":"Bóthar Mhullach Íde","fullname":"Waterside","fullnamelocalized":"","latitude":"53.452905","longitude":"-6.197828","operators":[{"name":"bac","routes":["142"]}]},{"stopid":"6312","displaystopid":"6312","shortname":"Holywell","shortnamelocalized":"An Tobar Naofa","fullname":"Link Road","fullnamelocalized":"","latitude":"53.443462","longitude":"-6.21139","operators":[{"name":"bac","routes":["142"]}]},{"stopid":"7582","displaystopid":"7582","shortname":"Dame Street","shortnamelocalized":"Sráid an Dáma","fullname":"Dame Street","fullnamelocalized":"","latitude":"53.34432306","longitude":"-6.262591111","operators":[{"name":"bac","routes":["142"]}]},{"stopid":"7589","displaystopid":"7589","shortname":"Aungier Street","shortnamelocalized":"Sráid Aungier","fullname":"Peter Row","fullnamelocalized":"","latitude":"53.339525","longitude":"-6.265948","operators":[{"name":"bac","routes":["142"]}]},{"stopid":"3583","displaystopid":"3583","shortname":"Dublin Rd","shortnamelocalized":"Br Bhaile Átha Clia","fullname":"Dublin Rd","fullnamelocalized":"","latitude":"53.44937694","longitude":"-6.163053056","operators":[{"name":"bac","routes":["142"]}]},{"stopid":"3584","displaystopid":"3584","shortname":"Dublin Rd","shortnamelocalized":"Br Bhaile Átha Clia","fullname":"Dublin Rd","fullnamelocalized":"","latitude":"53.44984611","longitude":"-6.159851944","operators":[{"name":"bac","routes":["142"]}]},{"stopid":"3585","displaystopid":"3585","shortname":"Malahide","shortnamelocalized":"Mullach Íde","fullname":"Malahide","fullnamelocalized":"","latitude":"53.45063","longitude":"-6.154975","operators":[{"name":"bac","routes":["142"]}]},{"stopid":"3613","displaystopid":"3613","shortname":"Redfern Ave","shortnamelocalized":"Ascl na Raithní Rua","fullname":"Redfern Ave","fullnamelocalized":"","latitude":"53.43509194","longitude":"-6.13461","operators":[{"name":"bac","routes":["142"]}]},{"stopid":"3615","displaystopid":"3615","shortname":"Wendell Avenue","shortnamelocalized":"Ascaill Wendell","fullname":"Wendell Avenue","fullnamelocalized":"","latitude":"53.43531306","longitude":"-6.131585","operators":[{"name":"bac","routes":["142"]}]},{"stopid":"3616","displaystopid":"3616","shortname":"Coast Road","shortnamelocalized":"Bóthar an Chósta","fullname":"Coast Road","fullnamelocalized":"","latitude":"53.43426806","longitude":"-6.123911944","operators":[{"name":"bac","routes":["142"]}]},{"stopid":"3625","displaystopid":"3625","shortname":"Church Road","shortnamelocalized":"Bóthar an Teampaill","fullname":"Church Road","fullnamelocalized":"","latitude":"53.44756806","longitude":"-6.152896111","operators":[{"name":"bac","routes":["142"]}]},{"stopid":"3626","displaystopid":"3626","shortname":"The Hill Malahide","shortnamelocalized":"An Cnoc Mullach Íde","fullname":"The Hill Malahide","fullnamelocalized":"","latitude":"53.44424194","longitude":"-6.152273889","operators":[{"name":"bac","routes":["142"]}]},{"stopid":"3627","displaystopid":"3627","shortname":"The Hill Malahide","shortnamelocalized":"An Cnoc Mullach Íde","fullname":"The Hill Malahide","fullnamelocalized":"","latitude":"53.44195389","longitude":"-6.151211111","operators":[{"name":"bac","routes":["142"]}]},{"stopid":"3628","displaystopid":"3628","shortname":"The Hill Malahide","shortnamelocalized":"An Cnoc Mullach Íde","fullname":"The Hill Malahide","fullnamelocalized":"","latitude":"53.43877889","longitude":"-6.151716944","operators":[{"name":"bac","routes":["142"]}]},{"stopid":"3641","displaystopid":"3641","shortname":"Estuary Road","shortnamelocalized":"Bóthar an Inbhir","fullname":"Estuary Road","fullnamelocalized":"","latitude":"53.45276","longitude":"-6.183488056","operators":[{"name":"bac","routes":["142"]}]},{"stopid":"3642","displaystopid":"3642","shortname":"Estuary Road","shortnamelocalized":"Bóthar an Inbhir","fullname":"Estuary Road","fullnamelocalized":"","latitude":"53.45512694","longitude":"-6.181273889","operators":[{"name":"bac","routes":["142"]}]},{"stopid":"3643","displaystopid":"3643","shortname":"Yellow Walls Rd","shortnamelocalized":"Br na mBallaí Buí","fullname":"Yellow Walls Rd","fullnamelocalized":"","latitude":"53.45126111","longitude":"-6.16924","operators":[{"name":"bac","routes":["142"]}]},{"stopid":"3653","displaystopid":"3653","shortname":"Mountgorry Way","shortnamelocalized":"Slí Chnocán Ghofrai","fullname":"Mountgorry Way","fullnamelocalized":"","latitude":"53.44865389","longitude":"-6.204496944","operators":[{"name":"bac","routes":["142"]}]},{"stopid":"7577","displaystopid":"7577","shortname":"Camden Street","shortnamelocalized":"Sráid Camden","fullname":"Camden Street","fullnamelocalized":"","latitude":"53.33370806","longitude":"-6.265218056","operators":[{"name":"bac","routes":["142"]}]},{"stopid":"7578","displaystopid":"7578","shortname":"George's Street","shortnamelocalized":"Sr Sheoirse","fullname":"George's Street","fullnamelocalized":"","latitude":"53.34246","longitude":"-6.264601111","operators":[{"name":"bac","routes":["142"]}]},{"stopid":"876","displaystopid":"876","shortname":"Bird Avenue","shortnamelocalized":"Ascaill na nÉan","fullname":"Bird Avenue","fullnamelocalized":"","latitude":"53.30521694","longitude":"-6.237076944","operators":[{"name":"bac","routes":["142"]}]},{"stopid":"877","displaystopid":"877","shortname":"UCD","shortnamelocalized":"UCD","fullname":"UCD","fullnamelocalized":"","latitude":"53.30820194","longitude":"-6.230046944","operators":[{"name":"bac","routes":["142","142"]}]}]},{"operator":"bac","origin":"Portmarnock","originlocalized":"Port Mearnóg","destination":"UCD (Belfield)","destinationlocalized":"UCD (Belfield)","lastupdated":"23\/07\/2018 09:42:42","stops":[{"stopid":"876","displaystopid":"876","shortname":"Bird Avenue","shortnamelocalized":"Ascaill na nÉan","fullname":"Bird Avenue","fullnamelocalized":"","latitude":"53.30521694","longitude":"-6.237076944","operators":[{"name":"bac","routes":["142"]}]},{"stopid":"3011","displaystopid":"3011","shortname":"Bird Avenue","shortnamelocalized":"Ascaill na nÉan","fullname":"Bird Avenue","fullnamelocalized":"","latitude":"53.30514306","longitude":"-6.244386944","operators":[{"name":"bac","routes":["142"]}]},{"stopid":"2896","displaystopid":"2896","shortname":"Dundrum Road","shortnamelocalized":"Bóthar Dhún Droma","fullname":"Dundrum Road","fullnamelocalized":"","latitude":"53.30598806","longitude":"-6.246025","operators":[{"name":"bac","routes":["142"]}]},{"stopid":"2897","displaystopid":"2897","shortname":"Dundrum Road","shortnamelocalized":"Bóthar Dhún Droma","fullname":"Dundrum Road","fullnamelocalized":"","latitude":"53.30819306","longitude":"-6.246615","operators":[{"name":"bac","routes":["142"]}]},{"stopid":"1062","displaystopid":"1062","shortname":"Milltown Road","shortnamelocalized":"Br Bhaile an Mhuili","fullname":"Churchtown Road","fullnamelocalized":"","latitude":"53.308257","longitude":"-6.255304","operators":[{"name":"bac","routes":["142"]}]},{"stopid":"1063","displaystopid":"1063","shortname":"Milltown Road","shortnamelocalized":"Br Bhaile an Mhuili","fullname":"South Hill","fullnamelocalized":"","latitude":"53.308568","longitude":"-6.258839","operators":[{"name":"bac","routes":["142"]}]},{"stopid":"1064","displaystopid":"1064","shortname":"Dartry Road","shortnamelocalized":"Bóthar Dhartrai","fullname":"Orwell Park","fullnamelocalized":"","latitude":"53.309427","longitude":"-6.260904","operators":[{"name":"bac","routes":["142"]}]},{"stopid":"1065","displaystopid":"1065","shortname":"Dartry Road","shortnamelocalized":"Bóthar Dhartrai","fullname":"Sunbury Gardens","fullnamelocalized":"","latitude":"53.311827","longitude":"-6.262764","operators":[{"name":"bac","routes":["142"]}]},{"stopid":"1066","displaystopid":"1066","shortname":"Rathmines Rd.","shortnamelocalized":"Br Ráth Maonais","fullname":"Highfield Road","fullnamelocalized":"","latitude":"53.313753","longitude":"-6.26407","operators":[{"name":"bac","routes":["142"]}]},{"stopid":"1067","displaystopid":"1067","shortname":"Rathmines Rd","shortnamelocalized":"Br Ráth Maonais","fullname":"Maxwell Road","fullnamelocalized":"","latitude":"53.317045","longitude":"-6.265212","operators":[{"name":"bac","routes":["142"]}]},{"stopid":"1068","displaystopid":"1068","shortname":"Rathmines Road","shortnamelocalized":"Bóthar Ráth Maonais","fullname":"Rathmines Avenue","fullnamelocalized":"","latitude":"53.320556","longitude":"-6.265369","operators":[{"name":"bac","routes":["142"]}]},{"stopid":"1069","displaystopid":"1069","shortname":"Rathmines Road","shortnamelocalized":"Bóthar Ráth Maonais","fullname":"Leinster Road","fullnamelocalized":"","latitude":"53.323288","longitude":"-6.265598","operators":[{"name":"bac","routes":["142"]}]},{"stopid":"1070","displaystopid":"1070","shortname":"Rathmines Road","shortnamelocalized":"Bóthar Ráth Maonais","fullname":"Williams Park","fullnamelocalized":"","latitude":"53.324969","longitude":"-6.2653","operators":[{"name":"bac","routes":["142"]}]},{"stopid":"1071","displaystopid":"1071","shortname":"Rathmines Road","shortnamelocalized":"Bóthar Ráth Maonais","fullname":"Military Road","fullnamelocalized":"","latitude":"53.32729","longitude":"-6.26485","operators":[{"name":"bac","routes":["142"]}]},{"stopid":"4528","displaystopid":"4528","shortname":"Rathmines Road","shortnamelocalized":"Bóthar Ráth Maonais","fullname":"Rathmines Road","fullnamelocalized":"","latitude":"53.32886111","longitude":"-6.264568889","operators":[{"name":"bac","routes":["142"]}]},{"stopid":"1072","displaystopid":"1072","shortname":"Richmond Street","shortnamelocalized":"Sráid Richmond","fullname":"Lennox Street","fullnamelocalized":"","latitude":"53.331036","longitude":"-6.264575","operators":[{"name":"bac","routes":["142"]}]},{"stopid":"7577","displaystopid":"7577","shortname":"Camden Street","shortnamelocalized":"Sráid Camden","fullname":"Camden Street","fullnamelocalized":"","latitude":"53.33370806","longitude":"-6.265218056","operators":[{"name":"bac","routes":["142"]}]},{"stopid":"1353","displaystopid":"1353","shortname":"Camden Street","shortnamelocalized":"Sráid Camden","fullname":"Camden Street","fullnamelocalized":"","latitude":"53.33601","longitude":"-6.265415","operators":[{"name":"bac","routes":["142"]}]},{"stopid":"1354","displaystopid":"1354","shortname":"Aungier Street","shortnamelocalized":"Sráid Aungier","fullname":"Aungier Street","fullnamelocalized":"","latitude":"53.33905","longitude":"-6.266066944","operators":[{"name":"bac","routes":["142"]}]},{"stopid":"7578","displaystopid":"7578","shortname":"George's Street","shortnamelocalized":"Sr Sheoirse","fullname":"George's Street","fullnamelocalized":"","latitude":"53.34246","longitude":"-6.264601111","operators":[{"name":"bac","routes":["142"]}]},{"stopid":"7582","displaystopid":"7582","shortname":"Dame Street","shortnamelocalized":"Sráid an Dáma","fullname":"Dame Street","fullnamelocalized":"","latitude":"53.34432306","longitude":"-6.262591111","operators":[{"name":"bac","routes":["142"]}]},{"stopid":"407","displaystopid":"407","shortname":"Custom House Quay","shortnamelocalized":"Cé Theach an Chusta","fullname":"Custom House Quay","fullnamelocalized":"","latitude":"53.34833306","longitude":"-6.253853056","operators":[{"name":"bac","routes":["142"]}]},{"stopid":"2498","displaystopid":"2498","shortname":"Custom House Quay","shortnamelocalized":"Cé Theach an Chusta","fullname":"Custom House Quay","fullnamelocalized":"","latitude":"53.34824306","longitude":"-6.250095","operators":[{"name":"bac","routes":["142"]}]},{"stopid":"2499","displaystopid":"2499","shortname":"Custom House Quay","shortnamelocalized":"Cé Theach an Chusta","fullname":"Custom House Quay","fullnamelocalized":"","latitude":"53.34806389","longitude":"-6.247145","operators":[{"name":"bac","routes":["142"]}]},{"stopid":"2500","displaystopid":"2500","shortname":"North Wall Quay","shortnamelocalized":"Cé an Phoirt Tdh","fullname":"North Wall Quay","fullnamelocalized":"","latitude":"53.347755","longitude":"-6.242365","operators":[{"name":"bac","routes":["142"]}]},{"stopid":"2501","displaystopid":"2501","shortname":"North Wall Quay","shortnamelocalized":"Cé an Phoirt Tdh","fullname":"North Wall Quay","fullnamelocalized":"","latitude":"53.34737306","longitude":"-6.236341944","operators":[{"name":"bac","routes":["142"]}]},{"stopid":"7623","displaystopid":"7623","shortname":"East Wall Rd","shortnamelocalized":"Br an Phoirt Thoir","fullname":"East Wall Rd","fullnamelocalized":"","latitude":"53.346855","longitude":"-6.228846111","operators":[{"name":"bac","routes":["142"]}]},{"stopid":"6312","displaystopid":"6312","shortname":"Holywell","shortnamelocalized":"An Tobar Naofa","fullname":"Link Road","fullnamelocalized":"","latitude":"53.443462","longitude":"-6.21139","operators":[{"name":"bac","routes":["142"]}]},{"stopid":"7197","displaystopid":"7197","shortname":"Holywell","shortnamelocalized":"An Tobar Naofa","fullname":"Holywell","fullnamelocalized":"","latitude":"53.44500694","longitude":"-6.21228","operators":[{"name":"bac","routes":["142"]}]},{"stopid":"7195","displaystopid":"7195","shortname":"Holywell Link Rd","shortnamelocalized":"Nbr An Tobair Naofa","fullname":"Holywell Link Rd","fullnamelocalized":"","latitude":"53.44731611","longitude":"-6.207843056","operators":[{"name":"bac","routes":["142"]}]},{"stopid":"3653","displaystopid":"3653","shortname":"Mountgorry Way","shortnamelocalized":"Slí Chnocán Ghofrai","fullname":"Mountgorry Way","fullnamelocalized":"","latitude":"53.44865389","longitude":"-6.204496944","operators":[{"name":"bac","routes":["142"]}]},{"stopid":"6055","displaystopid":"6055","shortname":"Malahide Road","shortnamelocalized":"Bóthar Mhullach Íde","fullname":"Waterside","fullnamelocalized":"","latitude":"53.452905","longitude":"-6.197828","operators":[{"name":"bac","routes":["142"]}]},{"stopid":"1073","displaystopid":"1073","shortname":"Malahide Road","shortnamelocalized":"Bóthar Mhullach Íde","fullname":"Seabury Road","fullnamelocalized":"","latitude":"53.450775","longitude":"-6.187407","operators":[{"name":"bac","routes":["142"]}]},{"stopid":"3641","displaystopid":"3641","shortname":"Estuary Road","shortnamelocalized":"Bóthar an Inbhir","fullname":"Estuary Road","fullnamelocalized":"","latitude":"53.45276","longitude":"-6.183488056","operators":[{"name":"bac","routes":["142"]}]},{"stopid":"3642","displaystopid":"3642","shortname":"Estuary Road","shortnamelocalized":"Bóthar an Inbhir","fullname":"Estuary Road","fullnamelocalized":"","latitude":"53.45512694","longitude":"-6.181273889","operators":[{"name":"bac","routes":["142"]}]},{"stopid":"3643","displaystopid":"3643","shortname":"Yellow Walls Rd","shortnamelocalized":"Br na mBallaí Buí","fullname":"Yellow Walls Rd","fullnamelocalized":"","latitude":"53.45126111","longitude":"-6.16924","operators":[{"name":"bac","routes":["142"]}]},{"stopid":"3583","displaystopid":"3583","shortname":"Dublin Rd","shortnamelocalized":"Br Bhaile Átha Clia","fullname":"Dublin Rd","fullnamelocalized":"","latitude":"53.44937694","longitude":"-6.163053056","operators":[{"name":"bac","routes":["142"]}]},{"stopid":"3584","displaystopid":"3584","shortname":"Dublin Rd","shortnamelocalized":"Br Bhaile Átha Clia","fullname":"Dublin Rd","fullnamelocalized":"","latitude":"53.44984611","longitude":"-6.159851944","operators":[{"name":"bac","routes":["142"]}]},{"stopid":"3585","displaystopid":"3585","shortname":"Malahide","shortnamelocalized":"Mullach Íde","fullname":"Malahide","fullnamelocalized":"","latitude":"53.45063","longitude":"-6.154975","operators":[{"name":"bac","routes":["142"]}]},{"stopid":"3625","displaystopid":"3625","shortname":"Church Road","shortnamelocalized":"Bóthar an Teampaill","fullname":"Church Road","fullnamelocalized":"","latitude":"53.44756806","longitude":"-6.152896111","operators":[{"name":"bac","routes":["142"]}]},{"stopid":"3626","displaystopid":"3626","shortname":"The Hill Malahide","shortnamelocalized":"An Cnoc Mullach Íde","fullname":"The Hill Malahide","fullnamelocalized":"","latitude":"53.44424194","longitude":"-6.152273889","operators":[{"name":"bac","routes":["142"]}]},{"stopid":"3627","displaystopid":"3627","shortname":"The Hill Malahide","shortnamelocalized":"An Cnoc Mullach Íde","fullname":"The Hill Malahide","fullnamelocalized":"","latitude":"53.44195389","longitude":"-6.151211111","operators":[{"name":"bac","routes":["142"]}]},{"stopid":"3628","displaystopid":"3628","shortname":"The Hill Malahide","shortnamelocalized":"An Cnoc Mullach Íde","fullname":"The Hill Malahide","fullnamelocalized":"","latitude":"53.43877889","longitude":"-6.151716944","operators":[{"name":"bac","routes":["142"]}]},{"stopid":"6052","displaystopid":"6052","shortname":"Blackwood Lane","shortnamelocalized":"Lána na Coille Duib","fullname":"Portmarnock Sports Club","fullnamelocalized":"","latitude":"53.434825","longitude":"-6.137652","operators":[{"name":"bac","routes":["142"]}]},{"stopid":"3613","displaystopid":"3613","shortname":"Redfern Ave","shortnamelocalized":"Ascl na Raithní Rua","fullname":"Redfern Ave","fullnamelocalized":"","latitude":"53.43509194","longitude":"-6.13461","operators":[{"name":"bac","routes":["142"]}]},{"stopid":"3615","displaystopid":"3615","shortname":"Wendell Avenue","shortnamelocalized":"Ascaill Wendell","fullname":"Wendell Avenue","fullnamelocalized":"","latitude":"53.43531306","longitude":"-6.131585","operators":[{"name":"bac","routes":["142"]}]},{"stopid":"3616","displaystopid":"3616","shortname":"Coast Road","shortnamelocalized":"Bóthar an Chósta","fullname":"Coast Road","fullnamelocalized":"","latitude":"53.43426806","longitude":"-6.123911944","operators":[{"name":"bac","routes":["142"]}]}]},{"operator":"bac","origin":"Rathmines (Palmerston Park)","originlocalized":"","destination":"Portmarnock","destinationlocalized":"Port Mearnóg","lastupdated":"27\/06\/2016 08:50:05","stops":[{"stopid":"1018","displaystopid":"1018","shortname":"Rathmines Road","shortnamelocalized":"Bóthar Ráth Maonais","fullname":"Richmond Hill","fullnamelocalized":"","latitude":"53.327567","longitude":"-6.26464","operators":[{"name":"bac","routes":["142"]}]},{"stopid":"1019","displaystopid":"1019","shortname":"Rathmines Road","shortnamelocalized":"Bóthar Ráth Maonais","fullname":"Military Road","fullnamelocalized":"","latitude":"53.326463","longitude":"-6.26484","operators":[{"name":"bac","routes":["142"]}]},{"stopid":"1025","displaystopid":"1025","shortname":"Dartry Road","shortnamelocalized":"Bóthar Dhartrai","fullname":"Temple Road","fullnamelocalized":"","latitude":"53.311595","longitude":"-6.262458","operators":[{"name":"bac","routes":["142"]}]},{"stopid":"1026","displaystopid":"1026","shortname":"Dartry Road","shortnamelocalized":"Bóthar Dhartrai","fullname":"Orwell Park","fullnamelocalized":"","latitude":"53.309103","longitude":"-6.260304","operators":[{"name":"bac","routes":["142"]}]},{"stopid":"1027","displaystopid":"1027","shortname":"Milltown Road","shortnamelocalized":"Br Bhaile an Mhuili","fullname":"South Hill","fullnamelocalized":"","latitude":"53.308731","longitude":"-6.257888","operators":[{"name":"bac","routes":["142"]}]},{"stopid":"1028","displaystopid":"1028","shortname":"Milltown Road","shortnamelocalized":"Br Bhaile an Mhuili","fullname":"Churchtown Road","fullnamelocalized":"","latitude":"53.308494","longitude":"-6.255702","operators":[{"name":"bac","routes":["142"]}]},{"stopid":"301","displaystopid":"301","shortname":"Eden Quay","shortnamelocalized":"Cé Éidin","fullname":"Eden Quay","fullnamelocalized":"","latitude":"53.34807611","longitude":"-6.256576944","operators":[{"name":"bac","routes":["142"]}]},{"stopid":"3012","displaystopid":"3012","shortname":"Bird Avenue","shortnamelocalized":"Ascaill na nÉan","fullname":"Bird Avenue","fullnamelocalized":"","latitude":"53.30527806","longitude":"-6.244128056","operators":[{"name":"bac","routes":["142"]}]},{"stopid":"336","displaystopid":"336","shortname":"D'Olier Street","shortnamelocalized":"Sráid D'Olier","fullname":"D'Olier Street","fullnamelocalized":"","latitude":"53.34624694","longitude":"-6.257703056","operators":[{"name":"bac","routes":["142"]}]},{"stopid":"4331","displaystopid":"4331","shortname":"Estuary Road","shortnamelocalized":"Bóthar an Inbhir","fullname":"Estuary Road","fullnamelocalized":"","latitude":"53.45540194","longitude":"-6.179183056","operators":[{"name":"bac","routes":["142"]}]},{"stopid":"4339","displaystopid":"4339","shortname":"Estuary Road","shortnamelocalized":"Bóthar an Inbhir","fullname":"Estuary Road","fullnamelocalized":"","latitude":"53.45266611","longitude":"-6.183418889","operators":[{"name":"bac","routes":["142"]}]},{"stopid":"7579","displaystopid":"7579","shortname":"Redmond's Hill","shortnamelocalized":"Cnoc Réamainn","fullname":"Redmond's Hill","fullnamelocalized":"","latitude":"53.33824306","longitude":"-6.265916111","operators":[{"name":"bac","routes":["142"]}]},{"stopid":"1076","displaystopid":"1076","shortname":"Rathmines Road","shortnamelocalized":"Bóthar Ráth Maonais","fullname":"Castlewood Ave","fullnamelocalized":"","latitude":"53.323158","longitude":"-6.265449","operators":[{"name":"bac","routes":["142"]}]},{"stopid":"2818","displaystopid":"2818","shortname":"Dundrum Road","shortnamelocalized":"Bóthar Dhún Droma","fullname":"Dundrum Road","fullnamelocalized":"","latitude":"53.30794194","longitude":"-6.246405","operators":[{"name":"bac","routes":["142"]}]},{"stopid":"2819","displaystopid":"2819","shortname":"Dundrum Road","shortnamelocalized":"Bóthar Dhún Droma","fullname":"Dundrum Road","fullnamelocalized":"","latitude":"53.30548306","longitude":"-6.245693056","operators":[{"name":"bac","routes":["142"]}]},{"stopid":"3656","displaystopid":"3656","shortname":"Mountgorry Way","shortnamelocalized":"Slí Chnocán Ghofrai","fullname":"Mountgorry Way","fullnamelocalized":"","latitude":"53.44854194","longitude":"-6.2044","operators":[{"name":"bac","routes":["142"]}]},{"stopid":"6042","displaystopid":"6042","shortname":"Rathmines Road","shortnamelocalized":"Bóthar Ráth Maonais","fullname":"Church Avenue","fullnamelocalized":"","latitude":"53.32014","longitude":"-6.26496","operators":[{"name":"bac","routes":["142"]}]},{"stopid":"6051","displaystopid":"6051","shortname":"Blackwood Lane","shortnamelocalized":"Lána na Coille Duib","fullname":"Sports and Leisure Club","fullnamelocalized":"","latitude":"53.434757","longitude":"-6.137989","operators":[{"name":"bac","routes":["142"]}]},{"stopid":"6053","displaystopid":"6053","shortname":"Blackwood Lane","shortnamelocalized":"Lána na Coille Duib","fullname":"Malahide Golf Club","fullnamelocalized":"","latitude":"53.434118","longitude":"-6.143207","operators":[{"name":"bac","routes":["142"]}]},{"stopid":"7581","displaystopid":"7581","shortname":"Dame Street","shortnamelocalized":"Sráid an Dáma","fullname":"Dame Street","fullnamelocalized":"","latitude":"53.34416111","longitude":"-6.263345","operators":[{"name":"bac","routes":["142"]}]},{"stopid":"1016","displaystopid":"1016","shortname":"Richmond Street","shortnamelocalized":"Sráid Richmond","fullname":"Lennox Street","fullnamelocalized":"","latitude":"53.33113","longitude":"-6.264413","operators":[{"name":"bac","routes":["142"]}]},{"stopid":"1017","displaystopid":"1017","shortname":"Rathmines Road","shortnamelocalized":"Bóthar Ráth Maonais","fullname":"Grove Park","fullnamelocalized":"","latitude":"53.329366","longitude":"-6.264316","operators":[{"name":"bac","routes":["142"]}]},{"stopid":"6252","displaystopid":"6252","shortname":"North Wall Quay","shortnamelocalized":"Cé an Phoirt Tdh","fullname":"Commons Street","fullnamelocalized":"","latitude":"53.34792","longitude":"-6.246997","operators":[{"name":"bac","routes":["142"]}]},{"stopid":"6310","displaystopid":"6310","shortname":"Holywell","shortnamelocalized":"An Tobar Naofa","fullname":"Link Road","fullnamelocalized":"","latitude":"53.443563","longitude":"-6.211027","operators":[{"name":"bac","routes":["142"]}]},{"stopid":"6311","displaystopid":"6311","shortname":"Holywell","shortnamelocalized":"An Tobar Naofa","fullname":"Link Road","fullnamelocalized":"","latitude":"53.443415","longitude":"-6.209267","operators":[{"name":"bac","routes":["142"]}]},{"stopid":"7327","displaystopid":"7327","shortname":"Blackwood Lane","shortnamelocalized":"Lána na Coille Duib","fullname":"Blackwood Lane","fullnamelocalized":"","latitude":"53.43400611","longitude":"-6.150533056","operators":[{"name":"bac","routes":["142"]}]},{"stopid":"1020","displaystopid":"1020","shortname":"Rathmines Road","shortnamelocalized":"Bóthar Ráth Maonais","fullname":"Town Centre","fullnamelocalized":"","latitude":"53.325077","longitude":"-6.265113","operators":[{"name":"bac","routes":["142"]}]},{"stopid":"1021","displaystopid":"1021","shortname":"Rathmines Road","shortnamelocalized":"Bóthar Ráth Maonais","fullname":"Rathmines Avenue","fullnamelocalized":"","latitude":"53.32137","longitude":"-6.265637","operators":[{"name":"bac","routes":["142"]}]},{"stopid":"1022","displaystopid":"1022","shortname":"Rathmines Road","shortnamelocalized":"Bóthar Ráth Maonais","fullname":"Summerville Park","fullnamelocalized":"","latitude":"53.319516","longitude":"-6.264538","operators":[{"name":"bac","routes":["142"]}]},{"stopid":"1023","displaystopid":"1023","shortname":"Rathmines Rd","shortnamelocalized":"Br Ráth Maonais","fullname":"Maxwell Road","fullnamelocalized":"","latitude":"53.317061","longitude":"-6.265007","operators":[{"name":"bac","routes":["142"]}]},{"stopid":"1024","displaystopid":"1024","shortname":"Rathmines Road","shortnamelocalized":"Bóthar Ráth Maonais","fullname":"Frankfort Avenue","fullnamelocalized":"","latitude":"53.315848","longitude":"-6.265016","operators":[{"name":"bac","routes":["142"]}]},{"stopid":"1283","displaystopid":"1283","shortname":"George's St","shortnamelocalized":"Sr Sheoirse","fullname":"George's St","fullnamelocalized":"","latitude":"53.34180611","longitude":"-6.264921111","operators":[{"name":"bac","routes":["142"]}]},{"stopid":"1285","displaystopid":"1285","shortname":"Camden St","shortnamelocalized":"Sráid Camden","fullname":"Camden St","fullnamelocalized":"","latitude":"53.33440194","longitude":"-6.265153889","operators":[{"name":"bac","routes":["142"]}]},{"stopid":"3605","displaystopid":"3605","shortname":"Wendell Avenue","shortnamelocalized":"Ascaill Wendell","fullname":"Wendell Avenue","fullnamelocalized":"","latitude":"53.43396806","longitude":"-6.124908056","operators":[{"name":"bac","routes":["142"]}]},{"stopid":"3606","displaystopid":"3606","shortname":"Wendell Avenue","shortnamelocalized":"Ascaill Wendell","fullname":"Wendell Avenue","fullnamelocalized":"","latitude":"53.43498194","longitude":"-6.130056944","operators":[{"name":"bac","routes":["142"]}]},{"stopid":"3607","displaystopid":"3607","shortname":"Redfern Ave","shortnamelocalized":"Ascl na Raithní Rua","fullname":"Redfern Ave","fullnamelocalized":"","latitude":"53.43489694","longitude":"-6.136271111","operators":[{"name":"bac","routes":["142"]}]},{"stopid":"3629","displaystopid":"3629","shortname":"The Hill Malahide","shortnamelocalized":"An Cnoc Mullach Íde","fullname":"The Hill Malahide","fullnamelocalized":"","latitude":"53.43551111","longitude":"-6.153201944","operators":[{"name":"bac","routes":["142"]}]},{"stopid":"3630","displaystopid":"3630","shortname":"The Hill Malahide","shortnamelocalized":"An Cnoc Mullach Íde","fullname":"The Hill Malahide","fullnamelocalized":"","latitude":"53.43846","longitude":"-6.151896111","operators":[{"name":"bac","routes":["142"]}]},{"stopid":"3631","displaystopid":"3631","shortname":"The Hill Malahide","shortnamelocalized":"An Cnoc Mullach Íde","fullname":"The Hill Malahide","fullnamelocalized":"","latitude":"53.44195806","longitude":"-6.151336944","operators":[{"name":"bac","routes":["142"]}]},{"stopid":"3632","displaystopid":"3632","shortname":"The Hill Malahide","shortnamelocalized":"An Cnoc Mullach Íde","fullname":"The Hill Malahide","fullnamelocalized":"","latitude":"53.44441","longitude":"-6.152488056","operators":[{"name":"bac","routes":["142"]}]},{"stopid":"3633","displaystopid":"3633","shortname":"Church Street","shortnamelocalized":"Bóthar an Teampaill","fullname":"Church Street","fullnamelocalized":"","latitude":"53.448385","longitude":"-6.153223889","operators":[{"name":"bac","routes":["142"]}]},{"stopid":"3634","displaystopid":"3634","shortname":"Malahide","shortnamelocalized":"Mullach Íde","fullname":"Malahide","fullnamelocalized":"","latitude":"53.45044889","longitude":"-6.155111111","operators":[{"name":"bac","routes":["142"]}]},{"stopid":"3635","displaystopid":"3635","shortname":"Dublin Rd","shortnamelocalized":"Br Bhaile Átha Clia","fullname":"Dublin Rd","fullnamelocalized":"","latitude":"53.44963194","longitude":"-6.160513889","operators":[{"name":"bac","routes":["142"]}]},{"stopid":"3636","displaystopid":"3636","shortname":"Dublin Rd","shortnamelocalized":"Br Bhaile Átha Clia","fullname":"Dublin Rd","fullnamelocalized":"","latitude":"53.449365","longitude":"-6.162228056","operators":[{"name":"bac","routes":["142"]}]},{"stopid":"6010","displaystopid":"6010","shortname":"Malahide Road","shortnamelocalized":"Bóthar Mhullach Íde","fullname":"Waterside","fullnamelocalized":"","latitude":"53.452872","longitude":"-6.198356","operators":[{"name":"bac","routes":["142"]}]},{"stopid":"7194","displaystopid":"7194","shortname":"Holywell Link Rd","shortnamelocalized":"Nbr An Tobar Naofa","fullname":"Holywell Link Rd","fullnamelocalized":"","latitude":"53.44722389","longitude":"-6.207528889","operators":[{"name":"bac","routes":["142"]}]},{"stopid":"7196","displaystopid":"7196","shortname":"Holywell","shortnamelocalized":"An Tobar Naofa","fullname":"Holywell","fullnamelocalized":"","latitude":"53.44494694","longitude":"-6.212515","operators":[{"name":"bac","routes":["142"]}]},{"stopid":"7397","displaystopid":"7397","shortname":"North Wall Quay","shortnamelocalized":"Cé an Phoirt Tdh","fullname":"North Wall Quay","fullnamelocalized":"","latitude":"53.34757194","longitude":"-6.243238056","operators":[{"name":"bac","routes":["142"]}]},{"stopid":"7398","displaystopid":"7398","shortname":"North Wall Quay","shortnamelocalized":"Cé an Phoirt Tdh","fullname":"North Wall Quay","fullnamelocalized":"","latitude":"53.34749889","longitude":"-6.239833056","operators":[{"name":"bac","routes":["142"]}]},{"stopid":"7399","displaystopid":"7399","shortname":"East Wall Rd","shortnamelocalized":"Br an Phoirt Thoir","fullname":"East Wall Rd","fullnamelocalized":"","latitude":"53.34837","longitude":"-6.226951944","operators":[{"name":"bac","routes":["142"]}]},{"stopid":"877","displaystopid":"877","shortname":"UCD","shortnamelocalized":"UCD","fullname":"UCD","fullnamelocalized":"","latitude":"53.30820194","longitude":"-6.230046944","operators":[{"name":"bac","routes":["142"]}]},{"stopid":"895","displaystopid":"895","shortname":"Rathmines Road","shortnamelocalized":"Bóthar Ráth Maonais","fullname":"Rathmines Road","fullnamelocalized":"","latitude":"53.31393194","longitude":"-6.263991944","operators":[{"name":"bac","routes":["142"]}]},{"stopid":"905","displaystopid":"905","shortname":"Yellow Walls Rd","shortnamelocalized":"Br na mBallaí Buí","fullname":"Yellow Walls Rd","fullnamelocalized":"","latitude":"53.45150306","longitude":"-6.170348889","operators":[{"name":"bac","routes":["142"]}]}]},{"operator":"bac","origin":"UCD (Belfield)","originlocalized":"UCD (Belfield)","destination":"Portmarnock","destinationlocalized":"Port Mearnóg","lastupdated":"23\/07\/2018 09:42:44","stops":[{"stopid":"3605","displaystopid":"3605","shortname":"Wendell Avenue","shortnamelocalized":"Ascaill Wendell","fullname":"Wendell Avenue","fullnamelocalized":"","latitude":"53.43396806","longitude":"-6.124908056","operators":[{"name":"bac","routes":["142"]}]},{"stopid":"3606","displaystopid":"3606","shortname":"Wendell Avenue","shortnamelocalized":"Ascaill Wendell","fullname":"Wendell Avenue","fullnamelocalized":"","latitude":"53.43498194","longitude":"-6.130056944","operators":[{"name":"bac","routes":["142"]}]},{"stopid":"3607","displaystopid":"3607","shortname":"Redfern Ave","shortnamelocalized":"Ascl na Raithní Rua","fullname":"Redfern Ave","fullnamelocalized":"","latitude":"53.43489694","longitude":"-6.136271111","operators":[{"name":"bac","routes":["142"]}]},{"stopid":"6051","displaystopid":"6051","shortname":"Blackwood Lane","shortnamelocalized":"Lána na Coille Duib","fullname":"Sports and Leisure Club","fullnamelocalized":"","latitude":"53.434757","longitude":"-6.137989","operators":[{"name":"bac","routes":["142"]}]},{"stopid":"6053","displaystopid":"6053","shortname":"Blackwood Lane","shortnamelocalized":"Lána na Coille Duib","fullname":"Malahide Golf Club","fullnamelocalized":"","latitude":"53.434118","longitude":"-6.143207","operators":[{"name":"bac","routes":["142"]}]},{"stopid":"7327","displaystopid":"7327","shortname":"Blackwood Lane","shortnamelocalized":"Lána na Coille Duib","fullname":"Blackwood Lane","fullnamelocalized":"","latitude":"53.43400611","longitude":"-6.150533056","operators":[{"name":"bac","routes":["142"]}]},{"stopid":"3629","displaystopid":"3629","shortname":"The Hill Malahide","shortnamelocalized":"An Cnoc Mullach Íde","fullname":"The Hill Malahide","fullnamelocalized":"","latitude":"53.43551111","longitude":"-6.153201944","operators":[{"name":"bac","routes":["142"]}]},{"stopid":"3630","displaystopid":"3630","shortname":"The Hill Malahide","shortnamelocalized":"An Cnoc Mullach Íde","fullname":"The Hill Malahide","fullnamelocalized":"","latitude":"53.43846","longitude":"-6.151896111","operators":[{"name":"bac","routes":["142"]}]},{"stopid":"3631","displaystopid":"3631","shortname":"The Hill Malahide","shortnamelocalized":"An Cnoc Mullach Íde","fullname":"The Hill Malahide","fullnamelocalized":"","latitude":"53.44195806","longitude":"-6.151336944","operators":[{"name":"bac","routes":["142"]}]},{"stopid":"3632","displaystopid":"3632","shortname":"The Hill Malahide","shortnamelocalized":"An Cnoc Mullach Íde","fullname":"The Hill Malahide","fullnamelocalized":"","latitude":"53.44441","longitude":"-6.152488056","operators":[{"name":"bac","routes":["142"]}]},{"stopid":"3633","displaystopid":"3633","shortname":"Church Street","shortnamelocalized":"Bóthar an Teampaill","fullname":"Church Street","fullnamelocalized":"","latitude":"53.448385","longitude":"-6.153223889","operators":[{"name":"bac","routes":["142"]}]},{"stopid":"3634","displaystopid":"3634","shortname":"Malahide","shortnamelocalized":"Mullach Íde","fullname":"Malahide","fullnamelocalized":"","latitude":"53.45044889","longitude":"-6.155111111","operators":[{"name":"bac","routes":["142"]}]},{"stopid":"3635","displaystopid":"3635","shortname":"Dublin Rd","shortnamelocalized":"Br Bhaile Átha Clia","fullname":"Dublin Rd","fullnamelocalized":"","latitude":"53.44963194","longitude":"-6.160513889","operators":[{"name":"bac","routes":["142"]}]},{"stopid":"3636","displaystopid":"3636","shortname":"Dublin Rd","shortnamelocalized":"Br Bhaile Átha Clia","fullname":"Dublin Rd","fullnamelocalized":"","latitude":"53.449365","longitude":"-6.162228056","operators":[{"name":"bac","routes":["142"]}]},{"stopid":"905","displaystopid":"905","shortname":"Yellow Walls Rd","shortnamelocalized":"Br na mBallaí Buí","fullname":"Yellow Walls Rd","fullnamelocalized":"","latitude":"53.45150306","longitude":"-6.170348889","operators":[{"name":"bac","routes":["142"]}]},{"stopid":"4331","displaystopid":"4331","shortname":"Estuary Road","shortnamelocalized":"Bóthar an Inbhir","fullname":"Estuary Road","fullnamelocalized":"","latitude":"53.45540194","longitude":"-6.179183056","operators":[{"name":"bac","routes":["142"]}]},{"stopid":"4339","displaystopid":"4339","shortname":"Estuary Road","shortnamelocalized":"Bóthar an Inbhir","fullname":"Estuary Road","fullnamelocalized":"","latitude":"53.45266611","longitude":"-6.183418889","operators":[{"name":"bac","routes":["142"]}]},{"stopid":"6010","displaystopid":"6010","shortname":"Malahide Road","shortnamelocalized":"Bóthar Mhullach Íde","fullname":"Waterside","fullnamelocalized":"","latitude":"53.452872","longitude":"-6.198356","operators":[{"name":"bac","routes":["142"]}]},{"stopid":"3656","displaystopid":"3656","shortname":"Mountgorry Way","shortnamelocalized":"Slí Chnocán Ghofrai","fullname":"Mountgorry Way","fullnamelocalized":"","latitude":"53.44854194","longitude":"-6.2044","operators":[{"name":"bac","routes":["142"]}]},{"stopid":"7194","displaystopid":"7194","shortname":"Holywell Link Rd","shortnamelocalized":"Nbr An Tobar Naofa","fullname":"Holywell Link Rd","fullnamelocalized":"","latitude":"53.44722389","longitude":"-6.207528889","operators":[{"name":"bac","routes":["142"]}]},{"stopid":"7196","displaystopid":"7196","shortname":"Holywell","shortnamelocalized":"An Tobar Naofa","fullname":"Holywell","fullnamelocalized":"","latitude":"53.44494694","longitude":"-6.212515","operators":[{"name":"bac","routes":["142"]}]},{"stopid":"6310","displaystopid":"6310","shortname":"Holywell","shortnamelocalized":"An Tobar Naofa","fullname":"Link Road","fullnamelocalized":"","latitude":"53.443563","longitude":"-6.211027","operators":[{"name":"bac","routes":["142"]}]},{"stopid":"6311","displaystopid":"6311","shortname":"Holywell","shortnamelocalized":"An Tobar Naofa","fullname":"Link Road","fullnamelocalized":"","latitude":"53.443415","longitude":"-6.209267","operators":[{"name":"bac","routes":["142"]}]},{"stopid":"7399","displaystopid":"7399","shortname":"East Wall Rd","shortnamelocalized":"Br an Phoirt Thoir","fullname":"East Wall Rd","fullnamelocalized":"","latitude":"53.34837","longitude":"-6.226951944","operators":[{"name":"bac","routes":["142"]}]},{"stopid":"7398","displaystopid":"7398","shortname":"North Wall Quay","shortnamelocalized":"Cé an Phoirt Tdh","fullname":"North Wall Quay","fullnamelocalized":"","latitude":"53.34749889","longitude":"-6.239833056","operators":[{"name":"bac","routes":["142"]}]},{"stopid":"7397","displaystopid":"7397","shortname":"North Wall Quay","shortnamelocalized":"Cé an Phoirt Tdh","fullname":"North Wall Quay","fullnamelocalized":"","latitude":"53.34757194","longitude":"-6.243238056","operators":[{"name":"bac","routes":["142"]}]},{"stopid":"6252","displaystopid":"6252","shortname":"North Wall Quay","shortnamelocalized":"Cé an Phoirt Tdh","fullname":"Commons Street","fullnamelocalized":"","latitude":"53.34792","longitude":"-6.246997","operators":[{"name":"bac","routes":["142"]}]},{"stopid":"301","displaystopid":"301","shortname":"Eden Quay","shortnamelocalized":"Cé Éidin","fullname":"Eden Quay","fullnamelocalized":"","latitude":"53.34807611","longitude":"-6.256576944","operators":[{"name":"bac","routes":["142"]}]},{"stopid":"4495","displaystopid":"4495","shortname":"Hawkins Street","shortnamelocalized":"Sráid Hawkins","fullname":"Hawkins Street","fullnamelocalized":"","latitude":"53.34618306","longitude":"-6.256966111","operators":[{"name":"bac","routes":["142"]}]},{"stopid":"2809","displaystopid":"2809","shortname":"Westland Row","shortnamelocalized":"Rae an Iarthair","fullname":"Westland Row","fullnamelocalized":"","latitude":"53.34303","longitude":"-6.249845","operators":[{"name":"bac","routes":["142"]}]},{"stopid":"2810","displaystopid":"2810","shortname":"Merrion Square","shortnamelocalized":"Cearnóg Mhuirfean","fullname":"Merrion Square","fullnamelocalized":"","latitude":"53.34079","longitude":"-6.250983056","operators":[{"name":"bac","routes":["142"]}]},{"stopid":"843","displaystopid":"843","shortname":"St. Stephen's Green","shortnamelocalized":"Faiche Stiabhna","fullname":"St. Stephen's Green","fullnamelocalized":"","latitude":"53.33705306","longitude":"-6.256463056","operators":[{"name":"bac","routes":["142"]}]},{"stopid":"1013","displaystopid":"1013","shortname":"Earlsfort Tce","shortnamelocalized":"Ardn Phort an Iarla","fullname":"Leeson St","fullnamelocalized":"","latitude":"53.33548","longitude":"-6.257537","operators":[{"name":"bac","routes":["142"]}]},{"stopid":"1015","displaystopid":"1015","shortname":"Adelaide Road","shortnamelocalized":"Bóthar Adelaide","fullname":"Earlsfort Terrace","fullnamelocalized":"","latitude":"53.332728","longitude":"-6.259941","operators":[{"name":"bac","routes":["142"]}]},{"stopid":"1016","displaystopid":"1016","shortname":"Richmond Street","shortnamelocalized":"Sráid Richmond","fullname":"Lennox Street","fullnamelocalized":"","latitude":"53.33113","longitude":"-6.264413","operators":[{"name":"bac","routes":["142"]}]},{"stopid":"1017","displaystopid":"1017","shortname":"Rathmines Road","shortnamelocalized":"Bóthar Ráth Maonais","fullname":"Grove Park","fullnamelocalized":"","latitude":"53.329366","longitude":"-6.264316","operators":[{"name":"bac","routes":["142"]}]},{"stopid":"1018","displaystopid":"1018","shortname":"Rathmines Road","shortnamelocalized":"Bóthar Ráth Maonais","fullname":"Richmond Hill","fullnamelocalized":"","latitude":"53.327567","longitude":"-6.26464","operators":[{"name":"bac","routes":["142"]}]},{"stopid":"1019","displaystopid":"1019","shortname":"Rathmines Road","shortnamelocalized":"Bóthar Ráth Maonais","fullname":"Military Road","fullnamelocalized":"","latitude":"53.326463","longitude":"-6.26484","operators":[{"name":"bac","routes":["142"]}]},{"stopid":"1020","displaystopid":"1020","shortname":"Rathmines Road","shortnamelocalized":"Bóthar Ráth Maonais","fullname":"Town Centre","fullnamelocalized":"","latitude":"53.325077","longitude":"-6.265113","operators":[{"name":"bac","routes":["142"]}]},{"stopid":"1076","displaystopid":"1076","shortname":"Rathmines Road","shortnamelocalized":"Bóthar Ráth Maonais","fullname":"Castlewood Ave","fullnamelocalized":"","latitude":"53.323158","longitude":"-6.265449","operators":[{"name":"bac","routes":["142"]}]},{"stopid":"1021","displaystopid":"1021","shortname":"Rathmines Road","shortnamelocalized":"Bóthar Ráth Maonais","fullname":"Rathmines Avenue","fullnamelocalized":"","latitude":"53.32137","longitude":"-6.265637","operators":[{"name":"bac","routes":["142"]}]},{"stopid":"6042","displaystopid":"6042","shortname":"Rathmines Road","shortnamelocalized":"Bóthar Ráth Maonais","fullname":"Church Avenue","fullnamelocalized":"","latitude":"53.32014","longitude":"-6.26496","operators":[{"name":"bac","routes":["142"]}]},{"stopid":"1022","displaystopid":"1022","shortname":"Rathmines Road","shortnamelocalized":"Bóthar Ráth Maonais","fullname":"Summerville Park","fullnamelocalized":"","latitude":"53.319516","longitude":"-6.264538","operators":[{"name":"bac","routes":["142"]}]},{"stopid":"1023","displaystopid":"1023","shortname":"Rathmines Rd","shortnamelocalized":"Br Ráth Maonais","fullname":"Maxwell Road","fullnamelocalized":"","latitude":"53.317061","longitude":"-6.265007","operators":[{"name":"bac","routes":["142"]}]},{"stopid":"1024","displaystopid":"1024","shortname":"Rathmines Road","shortnamelocalized":"Bóthar Ráth Maonais","fullname":"Frankfort Avenue","fullnamelocalized":"","latitude":"53.315848","longitude":"-6.265016","operators":[{"name":"bac","routes":["142"]}]},{"stopid":"895","displaystopid":"895","shortname":"Rathmines Road","shortnamelocalized":"Bóthar Ráth Maonais","fullname":"Rathmines Road","fullnamelocalized":"","latitude":"53.31393194","longitude":"-6.263991944","operators":[{"name":"bac","routes":["142"]}]},{"stopid":"1025","displaystopid":"1025","shortname":"Dartry Road","shortnamelocalized":"Bóthar Dhartrai","fullname":"Temple Road","fullnamelocalized":"","latitude":"53.311595","longitude":"-6.262458","operators":[{"name":"bac","routes":["142"]}]},{"stopid":"1026","displaystopid":"1026","shortname":"Dartry Road","shortnamelocalized":"Bóthar Dhartrai","fullname":"Orwell Park","fullnamelocalized":"","latitude":"53.309103","longitude":"-6.260304","operators":[{"name":"bac","routes":["142"]}]},{"stopid":"1027","displaystopid":"1027","shortname":"Milltown Road","shortnamelocalized":"Br Bhaile an Mhuili","fullname":"South Hill","fullnamelocalized":"","latitude":"53.308731","longitude":"-6.257888","operators":[{"name":"bac","routes":["142"]}]},{"stopid":"1028","displaystopid":"1028","shortname":"Milltown Road","shortnamelocalized":"Br Bhaile an Mhuili","fullname":"Churchtown Road","fullnamelocalized":"","latitude":"53.308494","longitude":"-6.255702","operators":[{"name":"bac","routes":["142"]}]},{"stopid":"2818","displaystopid":"2818","shortname":"Dundrum Road","shortnamelocalized":"Bóthar Dhún Droma","fullname":"Dundrum Road","fullnamelocalized":"","latitude":"53.30794194","longitude":"-6.246405","operators":[{"name":"bac","routes":["142"]}]},{"stopid":"2819","displaystopid":"2819","shortname":"Dundrum Road","shortnamelocalized":"Bóthar Dhún Droma","fullname":"Dundrum Road","fullnamelocalized":"","latitude":"53.30548306","longitude":"-6.245693056","operators":[{"name":"bac","routes":["142"]}]},{"stopid":"3012","displaystopid":"3012","shortname":"Bird Avenue","shortnamelocalized":"Ascaill na nÉan","fullname":"Bird Avenue","fullnamelocalized":"","latitude":"53.30527806","longitude":"-6.244128056","operators":[{"name":"bac","routes":["142"]}]},{"stopid":"877","displaystopid":"877","shortname":"UCD","shortnamelocalized":"UCD","fullname":"UCD","fullnamelocalized":"","latitude":"53.30820194","longitude":"-6.230046944","operators":[{"name":"bac","routes":["142"]}]}]}]}