{"errorcode":"0","errormessage":"","numberofresults":2,"route":"15","timestamp":"30\/07\/2018 09:32:18","results":[{"operator":"bac","origin":"Ballycullen Road","originlocalized":"Br Bhaile Uí Chuilinn","destination":"Clongriffin","destinationlocalized":"Cluain Ghrífín","lastupdated":"23\/07\/2018 09:44:06","stops":[{"stopid":"6282","displaystopid":"6282","shortname":"Ballycullen Rd","shortnamelocalized":"Br Bhaile Uí Chuili","fullname":"Hunter's Avenue","fullnamelocalized":"","latitude":"53.271648","longitude":"-6.328967","operators":[{"name":"bac","routes":["15"]}]},{"stopid":"6335","displaystopid":"6335","shortname":"Ballycullen Rd","shortnamelocalized":"Br Bhaile Uí Chuili","fullname":"Ballycullen Rd","fullnamelocalized":"","latitude":"53.27417","longitude":"-6.331056944","operators":[{"name":"bac","routes":["15"]}]},{"stopid":"6326","displaystopid":"6326","shortname":"Ballycullen Rd","shortnamelocalized":"Br Bhaile Uí Chuili","fullname":"Ballycullen Rd","fullnamelocalized":"","latitude":"53.27596611","longitude":"-6.331255","operators":[{"name":"bac","routes":["15"]}]},{"stopid":"4886","displaystopid":"4886","shortname":"St. Colmcille's Way","shortnamelocalized":"Slí Cholm Cille","fullname":"St. Colmcille's Way","fullnamelocalized":"","latitude":"53.276845","longitude":"-6.329663889","operators":[{"name":"bac","routes":["15"]}]},{"stopid":"4887","displaystopid":"4887","shortname":"St. Colmcille's Way","shortnamelocalized":"Slí Cholm Cille","fullname":"St. Colmcille's Way","fullnamelocalized":"","latitude":"53.27943","longitude":"-6.317935","operators":[{"name":"bac","routes":["15"]}]},{"stopid":"1150","displaystopid":"1150","shortname":"Scholarstown Rd","shortnamelocalized":"Br Bhaile Scallart","fullname":"Beverley Drive","fullnamelocalized":"","latitude":"53.281877","longitude":"-6.318319","operators":[{"name":"bac","routes":["15"]}]},{"stopid":"1151","displaystopid":"1151","shortname":"Knocklyon Road","shortnamelocalized":"Bóthar Chnoc Lín","fullname":"Dargle Wood","fullnamelocalized":"","latitude":"53.282551","longitude":"-6.314847","operators":[{"name":"bac","routes":["15"]}]},{"stopid":"1152","displaystopid":"1152","shortname":"Knocklyon Road","shortnamelocalized":"Bóthar Chnoc Lín","fullname":"Knockaire","fullnamelocalized":"","latitude":"53.283489","longitude":"-6.313378","operators":[{"name":"bac","routes":["15"]}]},{"stopid":"1153","displaystopid":"1153","shortname":"Knocklyon Road","shortnamelocalized":"Bóthar Chnoc Lín","fullname":"Knockcullen Rise","fullnamelocalized":"","latitude":"53.286835","longitude":"-6.310968","operators":[{"name":"bac","routes":["15"]}]},{"stopid":"1154","displaystopid":"1154","shortname":"Knocklyon Road","shortnamelocalized":"Bóthar Chnoc Lín","fullname":"Coolamber Park","fullnamelocalized":"","latitude":"53.288973","longitude":"-6.311099","operators":[{"name":"bac","routes":["15"]}]},{"stopid":"946","displaystopid":"946","shortname":"Firhouse Rd","shortnamelocalized":"Br Theach na Giúise","fullname":"Firhouse Rd","fullnamelocalized":"","latitude":"53.29317611","longitude":"-6.310091111","operators":[{"name":"bac","routes":["15"]}]},{"stopid":"1155","displaystopid":"1155","shortname":"Templeogue Rd","shortnamelocalized":"Br Theach Mealóg","fullname":"Cypress Grove Road","fullnamelocalized":"","latitude":"53.296769","longitude":"-6.307104","operators":[{"name":"bac","routes":["15"]}]},{"stopid":"1157","displaystopid":"1157","shortname":"Templeogue Rd","shortnamelocalized":"Br Theach Mealóg","fullname":"Riverside Cottages","fullnamelocalized":"","latitude":"53.298708","longitude":"-6.30234","operators":[{"name":"bac","routes":["15"]}]},{"stopid":"1158","displaystopid":"1158","shortname":"Templeogue Rd","shortnamelocalized":"Br Theach Mealóg","fullname":"Springfield Road","fullnamelocalized":"","latitude":"53.300604","longitude":"-6.299006","operators":[{"name":"bac","routes":["15"]}]},{"stopid":"1159","displaystopid":"1159","shortname":"Templeogue Rd","shortnamelocalized":"Br Theach Mealóg","fullname":"Bushy Park","fullnamelocalized":"","latitude":"53.302421","longitude":"-6.296393","operators":[{"name":"bac","routes":["15"]}]},{"stopid":"1160","displaystopid":"1160","shortname":"Templeogue Rd","shortnamelocalized":"Br Theach Mealóg","fullname":"Terenure College","fullnamelocalized":"","latitude":"53.304378","longitude":"-6.293183","operators":[{"name":"bac","routes":["15"]}]},{"stopid":"1161","displaystopid":"1161","shortname":"Templeogue Rd","shortnamelocalized":"Br Theach Mealóg","fullname":"Lakelands Park","fullnamelocalized":"","latitude":"53.306041","longitude":"-6.290481","operators":[{"name":"bac","routes":["15"]}]},{"stopid":"1162","displaystopid":"1162","shortname":"Templeogue Rd","shortnamelocalized":"Br Theach Mealóg","fullname":"Rathdown Park","fullnamelocalized":"","latitude":"53.30775","longitude":"-6.287718","operators":[{"name":"bac","routes":["15"]}]},{"stopid":"1163","displaystopid":"1163","shortname":"Templeogue Rd","shortnamelocalized":"Br Theach Mealóg","fullname":"Olney Crescent","fullnamelocalized":"","latitude":"53.30893","longitude":"-6.285792","operators":[{"name":"bac","routes":["15"]}]},{"stopid":"1164","displaystopid":"1164","shortname":"Terenure Rd East","shortnamelocalized":"Br Thír an Iúir Tho","fullname":"Healthfield Road","fullnamelocalized":"","latitude":"53.3104","longitude":"-6.281593","operators":[{"name":"bac","routes":["15"]}]},{"stopid":"1165","displaystopid":"1165","shortname":"Terenure Rd East","shortnamelocalized":"Br Thír an Iúir Tho","fullname":"Brighton Road","fullnamelocalized":"","latitude":"53.311688","longitude":"-6.276407","operators":[{"name":"bac","routes":["15"]}]},{"stopid":"1166","displaystopid":"1166","shortname":"Rathgar Road","shortnamelocalized":"Bóthar Ráth Garbh","fullname":"Winton Avenue","fullnamelocalized":"","latitude":"53.313907","longitude":"-6.272877","operators":[{"name":"bac","routes":["15"]}]},{"stopid":"1167","displaystopid":"1167","shortname":"Rathgar Road","shortnamelocalized":"Bóthar Ráth Garbh","fullname":"Garville Avenue","fullnamelocalized":"","latitude":"53.315954","longitude":"-6.27143","operators":[{"name":"bac","routes":["15"]}]},{"stopid":"1168","displaystopid":"1168","shortname":"Rathgar Road","shortnamelocalized":"Bóthar Ráth Garbh","fullname":"Grosvenor Road","fullnamelocalized":"","latitude":"53.31794","longitude":"-6.270031","operators":[{"name":"bac","routes":["15"]}]},{"stopid":"1169","displaystopid":"1169","shortname":"Rathgar Road","shortnamelocalized":"Bóthar Ráth Garbh","fullname":"Rathmines Park","fullnamelocalized":"","latitude":"53.320033","longitude":"-6.268551","operators":[{"name":"bac","routes":["15"]}]},{"stopid":"1170","displaystopid":"1170","shortname":"Rathgar Road","shortnamelocalized":"Bóthar Ráth Garbh","fullname":"Rathmines Road","fullnamelocalized":"","latitude":"53.321679","longitude":"-6.26653","operators":[{"name":"bac","routes":["15"]}]},{"stopid":"1069","displaystopid":"1069","shortname":"Rathmines Road","shortnamelocalized":"Bóthar Ráth Maonais","fullname":"Leinster Road","fullnamelocalized":"","latitude":"53.323288","longitude":"-6.265598","operators":[{"name":"bac","routes":["15"]}]},{"stopid":"1070","displaystopid":"1070","shortname":"Rathmines Road","shortnamelocalized":"Bóthar Ráth Maonais","fullname":"Williams Park","fullnamelocalized":"","latitude":"53.324969","longitude":"-6.2653","operators":[{"name":"bac","routes":["15"]}]},{"stopid":"1071","displaystopid":"1071","shortname":"Rathmines Road","shortnamelocalized":"Bóthar Ráth Maonais","fullname":"Military Road","fullnamelocalized":"","latitude":"53.32729","longitude":"-6.26485","operators":[{"name":"bac","routes":["15"]}]},{"stopid":"4528","displaystopid":"4528","shortname":"Rathmines Road","shortnamelocalized":"Bóthar Ráth Maonais","fullname":"Rathmines Road","fullnamelocalized":"","latitude":"53.32886111","longitude":"-6.264568889","operators":[{"name":"bac","routes":["15"]}]},{"stopid":"1072","displaystopid":"1072","shortname":"Richmond Street","shortnamelocalized":"Sráid Richmond","fullname":"Lennox Street","fullnamelocalized":"","latitude":"53.331036","longitude":"-6.264575","operators":[{"name":"bac","routes":["15"]}]},{"stopid":"7577","displaystopid":"7577","shortname":"Camden Street","shortnamelocalized":"Sráid Camden","fullname":"Camden Street","fullnamelocalized":"","latitude":"53.33370806","longitude":"-6.265218056","operators":[{"name":"bac","routes":["15"]}]},{"stopid":"1353","displaystopid":"1353","shortname":"Camden Street","shortnamelocalized":"Sráid Camden","fullname":"Camden Street","fullnamelocalized":"","latitude":"53.33601","longitude":"-6.265415","operators":[{"name":"bac","routes":["15"]}]},{"stopid":"1354","displaystopid":"1354","shortname":"Aungier Street","shortnamelocalized":"Sráid Aungier","fullname":"Aungier Street","fullnamelocalized":"","latitude":"53.33905","longitude":"-6.266066944","operators":[{"name":"bac","routes":["15"]}]},{"stopid":"7578","displaystopid":"7578","shortname":"George's Street","shortnamelocalized":"Sr Sheoirse","fullname":"George's Street","fullnamelocalized":"","latitude":"53.34246","longitude":"-6.264601111","operators":[{"name":"bac","routes":["15"]}]},{"stopid":"7582","displaystopid":"7582","shortname":"Dame Street","shortnamelocalized":"Sráid an Dáma","fullname":"Dame Street","fullnamelocalized":"","latitude":"53.34432306","longitude":"-6.262591111","operators":[{"name":"bac","routes":["15"]}]},{"stopid":"299","displaystopid":"299","shortname":"Eden Quay","shortnamelocalized":"Cé Éidin","fullname":"Eden Quay","fullnamelocalized":"","latitude":"53.348225","longitude":"-6.256013889","operators":[{"name":"bac","routes":["15"]}]},{"stopid":"497","displaystopid":"497","shortname":"Amiens Street","shortnamelocalized":"Sráid Amiens","fullname":"Amiens Street","fullnamelocalized":"","latitude":"53.35050306","longitude":"-6.250701111","operators":[{"name":"bac","routes":["15"]}]},{"stopid":"515","displaystopid":"515","shortname":"Amiens Street","shortnamelocalized":"Sráid Amiens","fullname":"Amiens Street","fullnamelocalized":"","latitude":"53.35350389","longitude":"-6.248088889","operators":[{"name":"bac","routes":["15"]}]},{"stopid":"516","displaystopid":"516","shortname":"North Strand Rd","shortnamelocalized":"Br na Trá Thuaidh","fullname":"North Strand Rd","fullnamelocalized":"","latitude":"53.35568","longitude":"-6.245661944","operators":[{"name":"bac","routes":["15"]}]},{"stopid":"4384","displaystopid":"4384","shortname":"North Strand Rd","shortnamelocalized":"Br na Trá Thuaidh","fullname":"North Strand Rd","fullnamelocalized":"","latitude":"53.35767111","longitude":"-6.242686111","operators":[{"name":"bac","routes":["15"]}]},{"stopid":"519","displaystopid":"519","shortname":"North Strand Rd","shortnamelocalized":"Br na Trá Thuaidh","fullname":"North Strand Rd","fullnamelocalized":"","latitude":"53.36030194","longitude":"-6.239553056","operators":[{"name":"bac","routes":["15"]}]},{"stopid":"521","displaystopid":"521","shortname":"Annesley Bridge","shortnamelocalized":"Droichead Annesley","fullname":"Annesley Bridge","fullnamelocalized":"","latitude":"53.361625","longitude":"-6.237988889","operators":[{"name":"bac","routes":["15"]}]},{"stopid":"522","displaystopid":"522","shortname":"Marino Mart","shortnamelocalized":"Marglann Marino","fullname":"Marino Mart","fullnamelocalized":"","latitude":"53.36327194","longitude":"-6.235341111","operators":[{"name":"bac","routes":["15"]}]},{"stopid":"523","displaystopid":"523","shortname":"Marino Mart","shortnamelocalized":"Marglann Marino","fullname":"Marino Mart","fullnamelocalized":"","latitude":"53.36428111","longitude":"-6.231608056","operators":[{"name":"bac","routes":["15"]}]},{"stopid":"669","displaystopid":"669","shortname":"Malahide Road","shortnamelocalized":"Bóthar Mhullach Íde","fullname":"Malahide Road","fullnamelocalized":"","latitude":"53.36631111","longitude":"-6.228656944","operators":[{"name":"bac","routes":["15"]}]},{"stopid":"670","displaystopid":"670","shortname":"Malahide Road","shortnamelocalized":"Bóthar Mhullach Íde","fullname":"Malahide Road","fullnamelocalized":"","latitude":"53.36895","longitude":"-6.226008889","operators":[{"name":"bac","routes":["15"]}]},{"stopid":"671","displaystopid":"671","shortname":"Malahide Road","shortnamelocalized":"Bóthar Mhullach Íde","fullname":"Malahide Road","fullnamelocalized":"","latitude":"53.37071889","longitude":"-6.224138056","operators":[{"name":"bac","routes":["15"]}]},{"stopid":"672","displaystopid":"672","shortname":"Malahide Road","shortnamelocalized":"Bóthar Mhullach Íde","fullname":"Malahide Road","fullnamelocalized":"","latitude":"53.373465","longitude":"-6.221061111","operators":[{"name":"bac","routes":["15"]}]},{"stopid":"4382","displaystopid":"4382","shortname":"Malahide Road","shortnamelocalized":"Bóthar Mhullach Íde","fullname":"Malahide Road","fullnamelocalized":"","latitude":"53.3749","longitude":"-6.2196","operators":[{"name":"bac","routes":["15"]}]},{"stopid":"1196","displaystopid":"1196","shortname":"Malahide Road","shortnamelocalized":"Bóthar Mhullach Íde","fullname":"Malahide Road","fullnamelocalized":"","latitude":"53.37802111","longitude":"-6.214528889","operators":[{"name":"bac","routes":["15"]}]},{"stopid":"1197","displaystopid":"1197","shortname":"Malahide Road","shortnamelocalized":"Bóthar Mhullach Íde","fullname":"Malahide Road","fullnamelocalized":"","latitude":"53.37923","longitude":"-6.211743056","operators":[{"name":"bac","routes":["15"]}]},{"stopid":"1198","displaystopid":"1198","shortname":"Malahide Road","shortnamelocalized":"Bóthar Mhullach Íde","fullname":"Malahide Road","fullnamelocalized":"","latitude":"53.38250889","longitude":"-6.206905","operators":[{"name":"bac","routes":["15"]}]},{"stopid":"1199","displaystopid":"1199","shortname":"Malahide Road","shortnamelocalized":"Bóthar Mhullach Íde","fullname":"Malahide Road","fullnamelocalized":"","latitude":"53.38498306","longitude":"-6.202756944","operators":[{"name":"bac","routes":["15"]}]},{"stopid":"1200","displaystopid":"1200","shortname":"Malahide Road","shortnamelocalized":"Bóthar Mhullach Íde","fullname":"Malahide Road","fullnamelocalized":"","latitude":"53.38695889","longitude":"-6.201041944","operators":[{"name":"bac","routes":["15"]}]},{"stopid":"4385","displaystopid":"4385","shortname":"Malahide Road","shortnamelocalized":"Bóthar Mhullach Íde","fullname":"Malahide Road","fullnamelocalized":"","latitude":"53.38853","longitude":"-6.198951944","operators":[{"name":"bac","routes":["15"]}]},{"stopid":"1201","displaystopid":"1201","shortname":"Malahide Road","shortnamelocalized":"Bóthar Mhullach Íde","fullname":"Malahide Road","fullnamelocalized":"","latitude":"53.39087806","longitude":"-6.196048889","operators":[{"name":"bac","routes":["15"]}]},{"stopid":"1202","displaystopid":"1202","shortname":"Malahide Road","shortnamelocalized":"Bóthar Mhullach Íde","fullname":"Malahide Road","fullnamelocalized":"","latitude":"53.39249694","longitude":"-6.193415","operators":[{"name":"bac","routes":["15"]}]},{"stopid":"1203","displaystopid":"1203","shortname":"Malahide Road","shortnamelocalized":"Bóthar Mhullach Íde","fullname":"Malahide Road","fullnamelocalized":"","latitude":"53.39671806","longitude":"-6.187518889","operators":[{"name":"bac","routes":["15"]}]},{"stopid":"6115","displaystopid":"6115","shortname":"Malahide Road","shortnamelocalized":"Bóthar Mhullach Íde","fullname":"Belcamp Lane","fullnamelocalized":"","latitude":"53.400125","longitude":"-6.184196","operators":[{"name":"bac","routes":["15"]}]},{"stopid":"4593","displaystopid":"4593","shortname":"Clare Hall Ave","shortnamelocalized":"Asc Halla an Chláir","fullname":"Clare Hall Ave","fullnamelocalized":"","latitude":"53.402495","longitude":"-6.176781944","operators":[{"name":"bac","routes":["15"]}]},{"stopid":"7516","displaystopid":"7516","shortname":"Belmayne","shortnamelocalized":"Béal Maighne","fullname":"Belmayne","fullnamelocalized":"","latitude":"53.40207306","longitude":"-6.17168","operators":[{"name":"bac","routes":["15"]}]},{"stopid":"6079","displaystopid":"6079","shortname":"Clare Hall Ave","shortnamelocalized":"Asc Halla an Chláir","fullname":"Grange Road","fullnamelocalized":"","latitude":"53.399399","longitude":"-6.163542","operators":[{"name":"bac","routes":["15"]}]},{"stopid":"6315","displaystopid":"6315","shortname":"Hole in the Wall Rd","shortnamelocalized":"Br Pholl an Bhalla","fullname":"Grattan Hall","fullnamelocalized":"","latitude":"53.401472","longitude":"-6.162393","operators":[{"name":"bac","routes":["15"]}]},{"stopid":"6316","displaystopid":"6316","shortname":"Clongriffin","shortnamelocalized":"Cluain Ghrífín","fullname":"Clongriffin","fullnamelocalized":"","latitude":"53.40290611","longitude":"-6.157331111","operators":[{"name":"bac","routes":["15"]}]},{"stopid":"7236","displaystopid":"7236","shortname":"Clongriffin Rd","shortnamelocalized":"Br Chluain Ghrífín","fullname":"Clongriffin Rd","fullnamelocalized":"","latitude":"53.40287111","longitude":"-6.154571111","operators":[{"name":"bac","routes":["15"]}]},{"stopid":"7245","displaystopid":"7245","shortname":"Clongriffin","shortnamelocalized":"Cluain Ghrífín","fullname":"Clongriffin","fullnamelocalized":"","latitude":"53.40256194","longitude":"-6.152171111","operators":[{"name":"bac","routes":["15"]}]},{"stopid":"6317","displaystopid":"6317","shortname":"Clongriffin","shortnamelocalized":"Cluain Ghrífín","fullname":"Clongriffin","fullnamelocalized":"","latitude":"53.402855","longitude":"-6.151418889","operators":[{"name":"bac","routes":["15"]}]}]},{"operator":"bac","origin":"Clongriffin","originlocalized":"Cluain Ghrífín","destination":"Ballycullen Road","destinationlocalized":"Br Bhaile Uí Chuilinn","lastupdated":"27\/06\/2016 08:51:09","stops":[{"stopid":"5190","displaystopid":"5190","shortname":"Hawkins Street","shortnamelocalized":"Sráid Hawkins","fullname":"Cinema","fullnamelocalized":"","latitude":"53.346033","longitude":"-6.256951","operators":[{"name":"bac","routes":["15"]}]},{"stopid":"4494","displaystopid":"4494","shortname":"Hawkins Street","shortnamelocalized":"Sráid Hawkins","fullname":"Hawkins Street","fullnamelocalized":"","latitude":"53.347135","longitude":"-6.257138056","operators":[{"name":"bac","routes":["15"]}]},{"stopid":"6318","displaystopid":"6318","shortname":"Clongriffin","shortnamelocalized":"Cluain Ghrífín","fullname":"Clongriffin","fullnamelocalized":"","latitude":"53.40231111","longitude":"-6.150986944","operators":[{"name":"bac","routes":["15"]}]},{"stopid":"6319","displaystopid":"6319","shortname":"Clongriffin","shortnamelocalized":"","fullname":"Clongriffin","fullnamelocalized":"","latitude":"53.402655","longitude":"-6.153786111","operators":[{"name":"bac","routes":["15"]}]},{"stopid":"7246","displaystopid":"7246","shortname":"Clongriffin","shortnamelocalized":"Cluain Ghrífín","fullname":"Clongriffin","fullnamelocalized":"","latitude":"53.40275889","longitude":"-6.157233056","operators":[{"name":"bac","routes":["15"]}]},{"stopid":"6320","displaystopid":"6320","shortname":"Hole in the Wall Rd","shortnamelocalized":"Br Pholl an Bhalla","fullname":"Hole in the Wall Rd","fullnamelocalized":"","latitude":"53.40158806","longitude":"-6.162151111","operators":[{"name":"bac","routes":["15"]}]},{"stopid":"4594","displaystopid":"4594","shortname":"Donaghmede Roundabo","shortnamelocalized":"Timpeallán Dhomhnac","fullname":"Donaghmede Roundabout","fullnamelocalized":"","latitude":"53.39924111","longitude":"-6.163536111","operators":[{"name":"bac","routes":["15"]}]},{"stopid":"4595","displaystopid":"4595","shortname":"Clare Hall Ave","shortnamelocalized":"Asc Halla Clár","fullname":"Clare Hall Ave","fullnamelocalized":"","latitude":"53.40213","longitude":"-6.173066111","operators":[{"name":"bac","routes":["15"]}]},{"stopid":"4596","displaystopid":"4596","shortname":"Clare Hall Ave","shortnamelocalized":"Asc Halla Clár","fullname":"Clare Hall Ave","fullnamelocalized":"","latitude":"53.40231889","longitude":"-6.177136111","operators":[{"name":"bac","routes":["15"]}]},{"stopid":"4563","displaystopid":"4563","shortname":"Malahide Road","shortnamelocalized":"Bóthar Mhullach Íde","fullname":"Malahide Road","fullnamelocalized":"","latitude":"53.401595","longitude":"-6.181025","operators":[{"name":"bac","routes":["15"]}]},{"stopid":"1218","displaystopid":"1218","shortname":"Malahide Road","shortnamelocalized":"Bóthar Mhullach Íde","fullname":"Malahide Road","fullnamelocalized":"","latitude":"53.39967389","longitude":"-6.18422","operators":[{"name":"bac","routes":["15"]}]},{"stopid":"1270","displaystopid":"1270","shortname":"Malahide Road","shortnamelocalized":"Bóthar Mhullach Íde","fullname":"Malahide Road","fullnamelocalized":"","latitude":"53.39648389","longitude":"-6.187183056","operators":[{"name":"bac","routes":["15"]}]},{"stopid":"1272","displaystopid":"1272","shortname":"Malahide Road","shortnamelocalized":"Bóthar Mhullach Íde","fullname":"Malahide Road","fullnamelocalized":"","latitude":"53.39287111","longitude":"-6.191838056","operators":[{"name":"bac","routes":["15"]}]},{"stopid":"1273","displaystopid":"1273","shortname":"Malahide Road","shortnamelocalized":"Bóthar Mhullach Íde","fullname":"Malahide Road","fullnamelocalized":"","latitude":"53.39112194","longitude":"-6.195286944","operators":[{"name":"bac","routes":["15"]}]},{"stopid":"1274","displaystopid":"1274","shortname":"Malahide Road","shortnamelocalized":"Bóthar Mhullach Íde","fullname":"Malahide Road","fullnamelocalized":"","latitude":"53.38893194","longitude":"-6.197961944","operators":[{"name":"bac","routes":["15"]}]},{"stopid":"1275","displaystopid":"1275","shortname":"Malahide Road","shortnamelocalized":"Bóthar Mhullach Íde","fullname":"Malahide Road","fullnamelocalized":"","latitude":"53.38557389","longitude":"-6.202065","operators":[{"name":"bac","routes":["15"]}]},{"stopid":"1276","displaystopid":"1276","shortname":"Malahide Road","shortnamelocalized":"Bóthar Mhullach Íde","fullname":"Malahide Road","fullnamelocalized":"","latitude":"53.38424806","longitude":"-6.202958056","operators":[{"name":"bac","routes":["15"]}]},{"stopid":"1277","displaystopid":"1277","shortname":"Malahide Road","shortnamelocalized":"Bóthar Mhullach Íde","fullname":"Malahide Road","fullnamelocalized":"","latitude":"53.38263694","longitude":"-6.206181111","operators":[{"name":"bac","routes":["15"]}]},{"stopid":"1219","displaystopid":"1219","shortname":"Malahide Road","shortnamelocalized":"Bóthar Mhullach Íde","fullname":"Malahide Road","fullnamelocalized":"","latitude":"53.38125889","longitude":"-6.208343056","operators":[{"name":"bac","routes":["15"]}]},{"stopid":"1220","displaystopid":"1220","shortname":"Malahide Road","shortnamelocalized":"Bóthar Mhullach Íde","fullname":"Malahide Road","fullnamelocalized":"","latitude":"53.37876389","longitude":"-6.212236944","operators":[{"name":"bac","routes":["15"]}]},{"stopid":"1221","displaystopid":"1221","shortname":"Malahide Road","shortnamelocalized":"Bóthar Mhullach Íde","fullname":"Malahide Road","fullnamelocalized":"","latitude":"53.37684806","longitude":"-6.216126944","operators":[{"name":"bac","routes":["15"]}]},{"stopid":"664","displaystopid":"664","shortname":"Malahide Road","shortnamelocalized":"Bóthar Mhullach Íde","fullname":"Malahide Road","fullnamelocalized":"","latitude":"53.37466","longitude":"-6.219551111","operators":[{"name":"bac","routes":["15"]}]},{"stopid":"665","displaystopid":"665","shortname":"Malahide Road","shortnamelocalized":"Bóthar Mhullach Íde","fullname":"Malahide Road","fullnamelocalized":"","latitude":"53.37247889","longitude":"-6.222061111","operators":[{"name":"bac","routes":["15"]}]},{"stopid":"666","displaystopid":"666","shortname":"Malahide Road","shortnamelocalized":"Bóthar Mhullach Íde","fullname":"Malahide Road","fullnamelocalized":"","latitude":"53.37016694","longitude":"-6.22429","operators":[{"name":"bac","routes":["15"]}]},{"stopid":"667","displaystopid":"667","shortname":"Malahide Road","shortnamelocalized":"Bóthar Mhullach Íde","fullname":"Malahide Road","fullnamelocalized":"","latitude":"53.36797389","longitude":"-6.226978056","operators":[{"name":"bac","routes":["15"]}]},{"stopid":"668","displaystopid":"668","shortname":"Malahide Road","shortnamelocalized":"Bóthar Mhullach Íde","fullname":"Malahide Road","fullnamelocalized":"","latitude":"53.36457611","longitude":"-6.229335","operators":[{"name":"bac","routes":["15"]}]},{"stopid":"614","displaystopid":"614","shortname":"Fairview","shortnamelocalized":"Fionnradharc","fullname":"Fairview Footbridge","fullnamelocalized":"","latitude":"53.363606","longitude":"-6.233541","operators":[{"name":"bac","routes":["15"]}]},{"stopid":"615","displaystopid":"615","shortname":"Annesley Brg Rd.","shortnamelocalized":"Br Dhr Annesley","fullname":"Fairview Park","fullnamelocalized":"","latitude":"53.361898","longitude":"-6.237338","operators":[{"name":"bac","routes":["15"]}]},{"stopid":"616","displaystopid":"616","shortname":"North Strand Rd","shortnamelocalized":"Br na Trá Thuaidh","fullname":"Annesley Bridge","fullnamelocalized":"","latitude":"53.359832","longitude":"-6.239618","operators":[{"name":"bac","routes":["15"]}]},{"stopid":"617","displaystopid":"617","shortname":"North Strand Rd","shortnamelocalized":"Br na Trá Thuaidh","fullname":"Strandville Avenue","fullnamelocalized":"","latitude":"53.3579","longitude":"-6.2421","operators":[{"name":"bac","routes":["15"]}]},{"stopid":"618","displaystopid":"618","shortname":"North Strand Rd","shortnamelocalized":"Br na Trá Thuaidh","fullname":"Newcomen Bridge","fullnamelocalized":"","latitude":"53.35608","longitude":"-6.24478","operators":[{"name":"bac","routes":["15"]}]},{"stopid":"619","displaystopid":"619","shortname":"Amiens Street","shortnamelocalized":"Sráid Amiens","fullname":"Sheriff Street","fullnamelocalized":"","latitude":"53.354003","longitude":"-6.247281","operators":[{"name":"bac","routes":["15"]}]},{"stopid":"675","displaystopid":"675","shortname":"Amiens Street","shortnamelocalized":"Sráid Amiens","fullname":"Amiens Street","fullnamelocalized":"","latitude":"53.352855","longitude":"-6.248531944","operators":[{"name":"bac","routes":["15"]}]},{"stopid":"4415","displaystopid":"4415","shortname":"Amiens Street","shortnamelocalized":"Sráid Amiens","fullname":"Amiens Street","fullnamelocalized":"","latitude":"53.35055694","longitude":"-6.250421944","operators":[{"name":"bac","routes":["15"]}]},{"stopid":"301","displaystopid":"301","shortname":"Eden Quay","shortnamelocalized":"Cé Éidin","fullname":"Eden Quay","fullnamelocalized":"","latitude":"53.34807611","longitude":"-6.256576944","operators":[{"name":"bac","routes":["15"]}]},{"stopid":"4495","displaystopid":"4495","shortname":"Hawkins Street","shortnamelocalized":"Sráid Hawkins","fullname":"Hawkins Street","fullnamelocalized":"","latitude":"53.34618306","longitude":"-6.256966111","operators":[{"name":"bac","routes":["15"]}]},{"stopid":"7581","displaystopid":"7581","shortname":"Dame Street","shortnamelocalized":"Sráid an Dáma","fullname":"Dame Street","fullnamelocalized":"","latitude":"53.34416111","longitude":"-6.263345","operators":[{"name":"bac","routes":["15"]}]},{"stopid":"1283","displaystopid":"1283","shortname":"George's St","shortnamelocalized":"Sr Sheoirse","fullname":"George's St","fullnamelocalized":"","latitude":"53.34180611","longitude":"-6.264921111","operators":[{"name":"bac","routes":["15"]}]},{"stopid":"7579","displaystopid":"7579","shortname":"Redmond's Hill","shortnamelocalized":"Cnoc Réamainn","fullname":"Redmond's Hill","fullnamelocalized":"","latitude":"53.33824306","longitude":"-6.265916111","operators":[{"name":"bac","routes":["15"]}]},{"stopid":"1285","displaystopid":"1285","shortname":"Camden St","shortnamelocalized":"Sráid Camden","fullname":"Camden St","fullnamelocalized":"","latitude":"53.33440194","longitude":"-6.265153889","operators":[{"name":"bac","routes":["15"]}]},{"stopid":"1016","displaystopid":"1016","shortname":"Richmond Street","shortnamelocalized":"Sráid Richmond","fullname":"Lennox Street","fullnamelocalized":"","latitude":"53.33113","longitude":"-6.264413","operators":[{"name":"bac","routes":["15"]}]},{"stopid":"1017","displaystopid":"1017","shortname":"Rathmines Road","shortnamelocalized":"Bóthar Ráth Maonais","fullname":"Grove Park","fullnamelocalized":"","latitude":"53.329366","longitude":"-6.264316","operators":[{"name":"bac","routes":["15"]}]},{"stopid":"1018","displaystopid":"1018","shortname":"Rathmines Road","shortnamelocalized":"Bóthar Ráth Maonais","fullname":"Richmond Hill","fullnamelocalized":"","latitude":"53.327567","longitude":"-6.26464","operators":[{"name":"bac","routes":["15"]}]},{"stopid":"1019","displaystopid":"1019","shortname":"Rathmines Road","shortnamelocalized":"Bóthar Ráth Maonais","fullname":"Military Road","fullnamelocalized":"","latitude":"53.326463","longitude":"-6.26484","operators":[{"name":"bac","routes":["15"]}]},{"stopid":"1020","displaystopid":"1020","shortname":"Rathmines Road","shortnamelocalized":"Bóthar Ráth Maonais","fullname":"Town Centre","fullnamelocalized":"","latitude":"53.325077","longitude":"-6.265113","operators":[{"name":"bac","routes":["15"]}]},{"stopid":"1076","displaystopid":"1076","shortname":"Rathmines Road","shortnamelocalized":"Bóthar Ráth Maonais","fullname":"Castlewood Ave","fullnamelocalized":"","latitude":"53.323158","longitude":"-6.265449","operators":[{"name":"bac","routes":["15"]}]},{"stopid":"1077","displaystopid":"1077","shortname":"Rathgar Road","shortnamelocalized":"Bóthar Ráth Garbh","fullname":"Garda Station","fullnamelocalized":"","latitude":"53.321557","longitude":"-6.26656","operators":[{"name":"bac","routes":["15"]}]},{"stopid":"1078","displaystopid":"1078","shortname":"Rathgar Road","shortnamelocalized":"Bóthar Ráth Garbh","fullname":"Rathgar Place","fullnamelocalized":"","latitude":"53.319465","longitude":"-6.268757","operators":[{"name":"bac","routes":["15"]}]},{"stopid":"1079","displaystopid":"1079","shortname":"Rathgar Road","shortnamelocalized":"Bóthar Ráth Garbh","fullname":"Frankfort Avenue","fullnamelocalized":"","latitude":"53.316648","longitude":"-6.27075","operators":[{"name":"bac","routes":["15"]}]},{"stopid":"1080","displaystopid":"1080","shortname":"Rathgar Road","shortnamelocalized":"Bóthar Ráth Garbh","fullname":"Auburn Villas","fullnamelocalized":"","latitude":"53.315005","longitude":"-6.271913","operators":[{"name":"bac","routes":["15"]}]},{"stopid":"1081","displaystopid":"1081","shortname":"Rathgar Road","shortnamelocalized":"Bóthar Ráth Garbh","fullname":"Highfield Road","fullnamelocalized":"","latitude":"53.31267","longitude":"-6.273568","operators":[{"name":"bac","routes":["15"]}]},{"stopid":"1082","displaystopid":"1082","shortname":"Terenure Rd East","shortnamelocalized":"Br Thír an Iúir Tho","fullname":"Rathgar Park","fullnamelocalized":"","latitude":"53.311674","longitude":"-6.27576","operators":[{"name":"bac","routes":["15"]}]},{"stopid":"1083","displaystopid":"1083","shortname":"Terenure Rd East","shortnamelocalized":"Br Thír an Iúir Tho","fullname":"Brighton Road","fullnamelocalized":"","latitude":"53.311142","longitude":"-6.278238","operators":[{"name":"bac","routes":["15"]}]},{"stopid":"1085","displaystopid":"1085","shortname":"Terenure Rd East","shortnamelocalized":"Br Thír an Iúir Tho","fullname":"Rathfarnham Road","fullnamelocalized":"","latitude":"53.310095","longitude":"-6.282374","operators":[{"name":"bac","routes":["15"]}]},{"stopid":"1121","displaystopid":"1121","shortname":"Templeogue Rd","shortnamelocalized":"Br Theach Mealóg","fullname":"Terenure Library","fullnamelocalized":"","latitude":"53.309033","longitude":"-6.285419","operators":[{"name":"bac","routes":["15"]}]},{"stopid":"1122","displaystopid":"1122","shortname":"Templeogue Rd","shortnamelocalized":"Br Theach Mealóg","fullname":"Rathdown Park","fullnamelocalized":"","latitude":"53.307259","longitude":"-6.288299","operators":[{"name":"bac","routes":["15"]}]},{"stopid":"1123","displaystopid":"1123","shortname":"Templeogue Rd","shortnamelocalized":"Br Theach Mealóg","fullname":"Lakelands Park","fullnamelocalized":"","latitude":"53.305573","longitude":"-6.29102","operators":[{"name":"bac","routes":["15"]}]},{"stopid":"1124","displaystopid":"1124","shortname":"Templeogue Rd","shortnamelocalized":"Br Theach Mealóg","fullname":"Rathdown Avenue","fullnamelocalized":"","latitude":"53.304134","longitude":"-6.293366","operators":[{"name":"bac","routes":["15"]}]},{"stopid":"1125","displaystopid":"1125","shortname":"Templeogue Rd","shortnamelocalized":"Br Theach Mealóg","fullname":"Bushy Park House","fullnamelocalized":"","latitude":"53.30108","longitude":"-6.298109","operators":[{"name":"bac","routes":["15"]}]},{"stopid":"1127","displaystopid":"1127","shortname":"Templeogue Rd","shortnamelocalized":"Br Theach Mealóg","fullname":"Riverside Cottages","fullnamelocalized":"","latitude":"53.298452","longitude":"-6.302822","operators":[{"name":"bac","routes":["15"]}]},{"stopid":"1130","displaystopid":"1130","shortname":"Templeogue Brg","shortnamelocalized":"Dr Theach Mealóg","fullname":"Old Bridge Road","fullnamelocalized":"","latitude":"53.2964","longitude":"-6.3084","operators":[{"name":"bac","routes":["15"]}]},{"stopid":"1140","displaystopid":"1140","shortname":"Firhouse Rd","shortnamelocalized":"Br Theach na Giúise","fullname":"Ballyroan Road","fullnamelocalized":"","latitude":"53.293289","longitude":"-6.309633","operators":[{"name":"bac","routes":["15"]}]},{"stopid":"1141","displaystopid":"1141","shortname":"Knocklyon Road","shortnamelocalized":"Bóthar Chnoc Lín","fullname":"Coolamber Court","fullnamelocalized":"","latitude":"53.289916","longitude":"-6.311006","operators":[{"name":"bac","routes":["15"]}]},{"stopid":"1142","displaystopid":"1142","shortname":"Knocklyon Road","shortnamelocalized":"Bóthar Chnoc Lín","fullname":"Knockcullen Rise","fullnamelocalized":"","latitude":"53.287545","longitude":"-6.310953","operators":[{"name":"bac","routes":["15"]}]},{"stopid":"1143","displaystopid":"1143","shortname":"Knocklyon Road","shortnamelocalized":"Bóthar Chnoc Lín","fullname":"Knockaire","fullnamelocalized":"","latitude":"53.283413","longitude":"-6.313366","operators":[{"name":"bac","routes":["15"]}]},{"stopid":"1144","displaystopid":"1144","shortname":"Knocklyon Road","shortnamelocalized":"Bóthar Chnoc Lín","fullname":"Dargle Wood","fullnamelocalized":"","latitude":"53.282323","longitude":"-6.315059","operators":[{"name":"bac","routes":["15"]}]},{"stopid":"1145","displaystopid":"1145","shortname":"Scholarstown Rd","shortnamelocalized":"Br Bhaile Scallart","fullname":"The Rookery","fullnamelocalized":"","latitude":"53.281806","longitude":"-6.318171","operators":[{"name":"bac","routes":["15"]}]},{"stopid":"4869","displaystopid":"4869","shortname":"St. Colmcille's Way","shortnamelocalized":"Slí Cholm Cille","fullname":"St. Colmcille's Way","fullnamelocalized":"","latitude":"53.27914694","longitude":"-6.318791111","operators":[{"name":"bac","routes":["15"]}]},{"stopid":"4870","displaystopid":"4870","shortname":"St. Colmcille's Way","shortnamelocalized":"Slí Cholm Cille","fullname":"St. Colmcille's Way","fullnamelocalized":"","latitude":"53.27670194","longitude":"-6.330106944","operators":[{"name":"bac","routes":["15"]}]},{"stopid":"3007","displaystopid":"3007","shortname":"Ballycullen Rd","shortnamelocalized":"Br Bhaile Uí Chuili","fullname":"Ballycullen Rd","fullnamelocalized":"","latitude":"53.27618389","longitude":"-6.331093056","operators":[{"name":"bac","routes":["15"]}]},{"stopid":"6283","displaystopid":"6283","shortname":"Ballycullen Rd","shortnamelocalized":"Br Bhaile Uí Chuili","fullname":"Hunter's Avenue","fullnamelocalized":"","latitude":"53.273428","longitude":"-6.330449","operators":[{"name":"bac","routes":["15"]}]},{"stopid":"6282","displaystopid":"6282","shortname":"Ballycullen Rd","shortnamelocalized":"Br Bhaile Uí Chuili","fullname":"Hunter's Avenue","fullnamelocalized":"","latitude":"53.271648","longitude":"-6.328967","operators":[{"name":"bac","routes":["15"]}]}]}]}