{"errorcode":"0","errormessage":"","numberofresults":2,"route":"15a","timestamp":"30\/07\/2018 09:32:43","results":[{"operator":"bac","origin":"Grand Canal Dock (Benson Street)","originlocalized":"","destination":"Limekiln Ave","destinationlocalized":"Limekiln Ave","lastupdated":"27\/06\/2016 08:50:53","stops":[{"stopid":"7512","displaystopid":"7512","shortname":"Rogerson's Quay","shortnamelocalized":"Cé Rogerson","fullname":"Rogerson's Quay","fullnamelocalized":"","latitude":"53.34602806","longitude":"-6.237318889","operators":[{"name":"bac","routes":["15A"]}]},{"stopid":"7221","displaystopid":"7221","shortname":"City Quay","shortnamelocalized":"Cé na Cathrach","fullname":"City Quay","fullnamelocalized":"","latitude":"53.34655111","longitude":"-6.245996111","operators":[{"name":"bac","routes":["15A"]}]},{"stopid":"7077","displaystopid":"7077","shortname":"Benson Street","shortnamelocalized":"Sráid Benson","fullname":"Benson Street","fullnamelocalized":"","latitude":"53.345185","longitude":"-6.234326944","operators":[{"name":"bac","routes":["15A"]}]},{"stopid":"7371","displaystopid":"7371","shortname":"Rogerson's Quay","shortnamelocalized":"Cé Rogerson","fullname":"Rogerson's Quay","fullnamelocalized":"","latitude":"53.34631194","longitude":"-6.242976111","operators":[{"name":"bac","routes":["15A"]}]},{"stopid":"395","displaystopid":"395","shortname":"Ringsend Road","shortnamelocalized":"Bóthar na Rinne","fullname":"Ringsend Road","fullnamelocalized":"","latitude":"53.34195694","longitude":"-6.235421944","operators":[{"name":"bac","routes":["15A"]}]},{"stopid":"396","displaystopid":"396","shortname":"Pearse Street","shortnamelocalized":"Sráid an Phiarsaigh","fullname":"Pearse Street","fullnamelocalized":"","latitude":"53.34246611","longitude":"-6.239713056","operators":[{"name":"bac","routes":["15A"]}]},{"stopid":"397","displaystopid":"397","shortname":"Pearse Street","shortnamelocalized":"Sráid an Phiarsaigh","fullname":"Pearse Street","fullnamelocalized":"","latitude":"53.34278111","longitude":"-6.242066944","operators":[{"name":"bac","routes":["15A"]}]},{"stopid":"398","displaystopid":"398","shortname":"Pearse Street","shortnamelocalized":"Sráid an Phiarsaigh","fullname":"Pearse Street","fullnamelocalized":"","latitude":"53.34329806","longitude":"-6.245531944","operators":[{"name":"bac","routes":["15A"]}]},{"stopid":"399","displaystopid":"399","shortname":"Pearse Street","shortnamelocalized":"Sráid an Phiarsaigh","fullname":"Pearse Street","fullnamelocalized":"","latitude":"53.34385194","longitude":"-6.248258056","operators":[{"name":"bac","routes":["15A"]}]},{"stopid":"400","displaystopid":"400","shortname":"Pearse Street","shortnamelocalized":"Sráid an Phiarsaigh","fullname":"Pearse Street","fullnamelocalized":"","latitude":"53.34482694","longitude":"-6.25323","operators":[{"name":"bac","routes":["15A"]}]},{"stopid":"7581","displaystopid":"7581","shortname":"Dame Street","shortnamelocalized":"Sráid an Dáma","fullname":"Dame Street","fullnamelocalized":"","latitude":"53.34416111","longitude":"-6.263345","operators":[{"name":"bac","routes":["15A"]}]},{"stopid":"1283","displaystopid":"1283","shortname":"George's St","shortnamelocalized":"Sr Sheoirse","fullname":"George's St","fullnamelocalized":"","latitude":"53.34180611","longitude":"-6.264921111","operators":[{"name":"bac","routes":["15A"]}]},{"stopid":"7579","displaystopid":"7579","shortname":"Redmond's Hill","shortnamelocalized":"Cnoc Réamainn","fullname":"Redmond's Hill","fullnamelocalized":"","latitude":"53.33824306","longitude":"-6.265916111","operators":[{"name":"bac","routes":["15A"]}]},{"stopid":"1285","displaystopid":"1285","shortname":"Camden St","shortnamelocalized":"Sráid Camden","fullname":"Camden St","fullnamelocalized":"","latitude":"53.33440194","longitude":"-6.265153889","operators":[{"name":"bac","routes":["15A"]}]},{"stopid":"1016","displaystopid":"1016","shortname":"Richmond Street","shortnamelocalized":"Sráid Richmond","fullname":"Lennox Street","fullnamelocalized":"","latitude":"53.33113","longitude":"-6.264413","operators":[{"name":"bac","routes":["15A"]}]},{"stopid":"1017","displaystopid":"1017","shortname":"Rathmines Road","shortnamelocalized":"Bóthar Ráth Maonais","fullname":"Grove Park","fullnamelocalized":"","latitude":"53.329366","longitude":"-6.264316","operators":[{"name":"bac","routes":["15A"]}]},{"stopid":"1018","displaystopid":"1018","shortname":"Rathmines Road","shortnamelocalized":"Bóthar Ráth Maonais","fullname":"Richmond Hill","fullnamelocalized":"","latitude":"53.327567","longitude":"-6.26464","operators":[{"name":"bac","routes":["15A"]}]},{"stopid":"1019","displaystopid":"1019","shortname":"Rathmines Road","shortnamelocalized":"Bóthar Ráth Maonais","fullname":"Military Road","fullnamelocalized":"","latitude":"53.326463","longitude":"-6.26484","operators":[{"name":"bac","routes":["15A"]}]},{"stopid":"1020","displaystopid":"1020","shortname":"Rathmines Road","shortnamelocalized":"Bóthar Ráth Maonais","fullname":"Town Centre","fullnamelocalized":"","latitude":"53.325077","longitude":"-6.265113","operators":[{"name":"bac","routes":["15A"]}]},{"stopid":"1076","displaystopid":"1076","shortname":"Rathmines Road","shortnamelocalized":"Bóthar Ráth Maonais","fullname":"Castlewood Ave","fullnamelocalized":"","latitude":"53.323158","longitude":"-6.265449","operators":[{"name":"bac","routes":["15A"]}]},{"stopid":"1077","displaystopid":"1077","shortname":"Rathgar Road","shortnamelocalized":"Bóthar Ráth Garbh","fullname":"Garda Station","fullnamelocalized":"","latitude":"53.321557","longitude":"-6.26656","operators":[{"name":"bac","routes":["15A"]}]},{"stopid":"1078","displaystopid":"1078","shortname":"Rathgar Road","shortnamelocalized":"Bóthar Ráth Garbh","fullname":"Rathgar Place","fullnamelocalized":"","latitude":"53.319465","longitude":"-6.268757","operators":[{"name":"bac","routes":["15A"]}]},{"stopid":"1079","displaystopid":"1079","shortname":"Rathgar Road","shortnamelocalized":"Bóthar Ráth Garbh","fullname":"Frankfort Avenue","fullnamelocalized":"","latitude":"53.316648","longitude":"-6.27075","operators":[{"name":"bac","routes":["15A"]}]},{"stopid":"1080","displaystopid":"1080","shortname":"Rathgar Road","shortnamelocalized":"Bóthar Ráth Garbh","fullname":"Auburn Villas","fullnamelocalized":"","latitude":"53.315005","longitude":"-6.271913","operators":[{"name":"bac","routes":["15A"]}]},{"stopid":"1081","displaystopid":"1081","shortname":"Rathgar Road","shortnamelocalized":"Bóthar Ráth Garbh","fullname":"Highfield Road","fullnamelocalized":"","latitude":"53.31267","longitude":"-6.273568","operators":[{"name":"bac","routes":["15A"]}]},{"stopid":"1082","displaystopid":"1082","shortname":"Terenure Rd East","shortnamelocalized":"Br Thír an Iúir Tho","fullname":"Rathgar Park","fullnamelocalized":"","latitude":"53.311674","longitude":"-6.27576","operators":[{"name":"bac","routes":["15A"]}]},{"stopid":"1083","displaystopid":"1083","shortname":"Terenure Rd East","shortnamelocalized":"Br Thír an Iúir Tho","fullname":"Brighton Road","fullnamelocalized":"","latitude":"53.311142","longitude":"-6.278238","operators":[{"name":"bac","routes":["15A"]}]},{"stopid":"1085","displaystopid":"1085","shortname":"Terenure Rd East","shortnamelocalized":"Br Thír an Iúir Tho","fullname":"Rathfarnham Road","fullnamelocalized":"","latitude":"53.310095","longitude":"-6.282374","operators":[{"name":"bac","routes":["15A"]}]},{"stopid":"1086","displaystopid":"1086","shortname":"Terenure Rd West","shortnamelocalized":"Br Thír an Iúir Thi","fullname":"Templeogue Road","fullnamelocalized":"","latitude":"53.309664","longitude":"-6.285602","operators":[{"name":"bac","routes":["15A"]}]},{"stopid":"1087","displaystopid":"1087","shortname":"Terenure Rd West","shortnamelocalized":"Br Thír an Iúir Thi","fullname":"Greenlea Road","fullnamelocalized":"","latitude":"53.310331","longitude":"-6.289383","operators":[{"name":"bac","routes":["15A"]}]},{"stopid":"1088","displaystopid":"1088","shortname":"Terenure Rd West","shortnamelocalized":"Br Thír an Iúir Thi","fullname":"Parkmore Drive","fullnamelocalized":"","latitude":"53.310966","longitude":"-6.293171","operators":[{"name":"bac","routes":["15A"]}]},{"stopid":"1089","displaystopid":"1089","shortname":"Terenure Rd West","shortnamelocalized":"Br Thír an Iúir Thi","fullname":"Lavarna Grove","fullnamelocalized":"","latitude":"53.311649","longitude":"-6.297486","operators":[{"name":"bac","routes":["15A"]}]},{"stopid":"1090","displaystopid":"1090","shortname":"Kimmage Road West","shortnamelocalized":"Bóthar Chamaí Thiar","fullname":"Fortfield Road","fullnamelocalized":"","latitude":"53.312223","longitude":"-6.300614","operators":[{"name":"bac","routes":["15A"]}]},{"stopid":"1091","displaystopid":"1091","shortname":"Whitehall Rd","shortnamelocalized":"Br an Halla Bháin","fullname":"Kimmage Road West","fullnamelocalized":"","latitude":"53.312437","longitude":"-6.305281","operators":[{"name":"bac","routes":["15A"]}]},{"stopid":"1092","displaystopid":"1092","shortname":"Whitehall Rd","shortnamelocalized":"Br an Halla Bháin","fullname":"Priory Walk","fullnamelocalized":"","latitude":"53.310742","longitude":"-6.309206","operators":[{"name":"bac","routes":["15A"]}]},{"stopid":"1093","displaystopid":"1093","shortname":"Whitehall Rd","shortnamelocalized":"Br an Halla Bháin","fullname":"Manor Grove","fullnamelocalized":"","latitude":"53.309973","longitude":"-6.311652","operators":[{"name":"bac","routes":["15A"]}]},{"stopid":"1094","displaystopid":"1094","shortname":"Whitehall Rd","shortnamelocalized":"Br an Halla Bháin","fullname":"Kimmage Manor Way","fullnamelocalized":"","latitude":"53.309054","longitude":"-6.314678","operators":[{"name":"bac","routes":["15A"]}]},{"stopid":"1095","displaystopid":"1095","shortname":"Wellington Road","shortnamelocalized":"Bóthar Wellington","fullname":"Templeville Road","fullnamelocalized":"","latitude":"53.306909","longitude":"-6.319965","operators":[{"name":"bac","routes":["15A"]}]},{"stopid":"1096","displaystopid":"1096","shortname":"Wellington Road","shortnamelocalized":"Bóthar Wellington","fullname":"Wellington Park","fullnamelocalized":"","latitude":"53.306044","longitude":"-6.321388","operators":[{"name":"bac","routes":["15A"]}]},{"stopid":"1101","displaystopid":"1101","shortname":"Limekiln Road","shortnamelocalized":"Bóthar na Tiníleach","fullname":"Wellington Lane","fullnamelocalized":"","latitude":"53.304721","longitude":"-6.322658","operators":[{"name":"bac","routes":["15A"]}]},{"stopid":"1102","displaystopid":"1102","shortname":"Limekiln Road","shortnamelocalized":"Bóthar na Tiníleach","fullname":"Limekiln Park","fullnamelocalized":"","latitude":"53.304383","longitude":"-6.326416","operators":[{"name":"bac","routes":["15A"]}]},{"stopid":"1103","displaystopid":"1103","shortname":"Limekiln Road","shortnamelocalized":"Bóthar na Tiníleach","fullname":"Tymon Park","fullnamelocalized":"","latitude":"53.304524","longitude":"-6.329314","operators":[{"name":"bac","routes":["15A"]}]},{"stopid":"1104","displaystopid":"1104","shortname":"Limekiln Ave","shortnamelocalized":"Ascl na Tiníleach","fullname":"Limekiln Road","fullnamelocalized":"","latitude":"53.305019","longitude":"-6.333513","operators":[{"name":"bac","routes":["15A"]}]}]},{"operator":"bac","origin":"Limekiln Ave","originlocalized":"Limekiln Ave","destination":"Grand Canal Dock (Benson Street)","destinationlocalized":"","lastupdated":"27\/06\/2016 08:50:57","stops":[{"stopid":"7076","displaystopid":"7076","shortname":"Benson Street","shortnamelocalized":"Sráid Benson","fullname":"Benson Street","fullnamelocalized":"","latitude":"53.34535389","longitude":"-6.234283056","operators":[{"name":"bac","routes":["15A"]}]},{"stopid":"7589","displaystopid":"7589","shortname":"Aungier Street","shortnamelocalized":"Sráid Aungier","fullname":"Peter Row","fullnamelocalized":"","latitude":"53.339525","longitude":"-6.265948","operators":[{"name":"bac","routes":["15A"]}]},{"stopid":"1105","displaystopid":"1105","shortname":"Limekiln Ave","shortnamelocalized":"Ascl na Tiníleach","fullname":"Greenhills College","fullnamelocalized":"","latitude":"53.306931","longitude":"-6.334001","operators":[{"name":"bac","routes":["15A"]}]},{"stopid":"1107","displaystopid":"1107","shortname":"Limekiln Road","shortnamelocalized":"Bóthar na Tiníleach","fullname":"Limekiln Avenue","fullnamelocalized":"","latitude":"53.304415","longitude":"-6.332102","operators":[{"name":"bac","routes":["15A"]}]},{"stopid":"1108","displaystopid":"1108","shortname":"Limekiln Road","shortnamelocalized":"Bóthar na Tiníleach","fullname":"St. Peter's School","fullnamelocalized":"","latitude":"53.304569","longitude":"-6.328973","operators":[{"name":"bac","routes":["15A"]}]},{"stopid":"1109","displaystopid":"1109","shortname":"Limekiln Road","shortnamelocalized":"Bóthar na Tiníleach","fullname":"Mountdown Park","fullnamelocalized":"","latitude":"53.304433","longitude":"-6.325793","operators":[{"name":"bac","routes":["15A"]}]},{"stopid":"1110","displaystopid":"1110","shortname":"Limekiln Road","shortnamelocalized":"Bóthar na Tiníleach","fullname":"Wellington Lane","fullnamelocalized":"","latitude":"53.30472","longitude":"-6.323243","operators":[{"name":"bac","routes":["15A"]}]},{"stopid":"1111","displaystopid":"1111","shortname":"Wellington Road","shortnamelocalized":"Bóthar Wellington","fullname":"Limekiln Drive","fullnamelocalized":"","latitude":"53.305279","longitude":"-6.322152","operators":[{"name":"bac","routes":["15A"]}]},{"stopid":"1112","displaystopid":"1112","shortname":"Whitehall Rd","shortnamelocalized":"Br an Halla Bháin","fullname":"Whitehall Park","fullnamelocalized":"","latitude":"53.307673","longitude":"-6.318571","operators":[{"name":"bac","routes":["15A"]}]},{"stopid":"1113","displaystopid":"1113","shortname":"Whitehall Rd","shortnamelocalized":"Br an Halla Bháin","fullname":"Glendale Park","fullnamelocalized":"","latitude":"53.308933","longitude":"-6.315331","operators":[{"name":"bac","routes":["15A"]}]},{"stopid":"1114","displaystopid":"1114","shortname":"Whitehall Rd","shortnamelocalized":"Br an Halla Bháin","fullname":"Manor Grove","fullnamelocalized":"","latitude":"53.310287","longitude":"-6.310848","operators":[{"name":"bac","routes":["15A"]}]},{"stopid":"1115","displaystopid":"1115","shortname":"Whitehall Rd","shortnamelocalized":"Br an Halla Bháin","fullname":"Whitehall Gardens","fullnamelocalized":"","latitude":"53.311468","longitude":"-6.30749","operators":[{"name":"bac","routes":["15A"]}]},{"stopid":"2437","displaystopid":"2437","shortname":"Kimmage Road West","shortnamelocalized":"Bóthar Chamaí Thiar","fullname":"Kimmage Road West","fullnamelocalized":"","latitude":"53.312655","longitude":"-6.302356944","operators":[{"name":"bac","routes":["15A"]}]},{"stopid":"1117","displaystopid":"1117","shortname":"Terenure Rd West","shortnamelocalized":"Br Thír an Iúir Thi","fullname":"Lavarna Grove","fullnamelocalized":"","latitude":"53.311867","longitude":"-6.298289","operators":[{"name":"bac","routes":["15A"]}]},{"stopid":"1118","displaystopid":"1118","shortname":"Terenure Rd West","shortnamelocalized":"Br Thír an Iúir Thi","fullname":"Hazelbrook Road","fullnamelocalized":"","latitude":"53.311328","longitude":"-6.294997","operators":[{"name":"bac","routes":["15A"]}]},{"stopid":"1119","displaystopid":"1119","shortname":"Terenure Rd West","shortnamelocalized":"Br Thír an Iúir Thi","fullname":"Hazelbrook Court","fullnamelocalized":"","latitude":"53.31093","longitude":"-6.292402","operators":[{"name":"bac","routes":["15A"]}]},{"stopid":"1120","displaystopid":"1120","shortname":"Terenure Rd West","shortnamelocalized":"Br Thír an Iúir Thi","fullname":"Garda Station","fullnamelocalized":"","latitude":"53.310169","longitude":"-6.287989","operators":[{"name":"bac","routes":["15A"]}]},{"stopid":"1164","displaystopid":"1164","shortname":"Terenure Rd East","shortnamelocalized":"Br Thír an Iúir Tho","fullname":"Healthfield Road","fullnamelocalized":"","latitude":"53.3104","longitude":"-6.281593","operators":[{"name":"bac","routes":["15A"]}]},{"stopid":"1165","displaystopid":"1165","shortname":"Terenure Rd East","shortnamelocalized":"Br Thír an Iúir Tho","fullname":"Brighton Road","fullnamelocalized":"","latitude":"53.311688","longitude":"-6.276407","operators":[{"name":"bac","routes":["15A"]}]},{"stopid":"1166","displaystopid":"1166","shortname":"Rathgar Road","shortnamelocalized":"Bóthar Ráth Garbh","fullname":"Winton Avenue","fullnamelocalized":"","latitude":"53.313907","longitude":"-6.272877","operators":[{"name":"bac","routes":["15A"]}]},{"stopid":"1167","displaystopid":"1167","shortname":"Rathgar Road","shortnamelocalized":"Bóthar Ráth Garbh","fullname":"Garville Avenue","fullnamelocalized":"","latitude":"53.315954","longitude":"-6.27143","operators":[{"name":"bac","routes":["15A"]}]},{"stopid":"1168","displaystopid":"1168","shortname":"Rathgar Road","shortnamelocalized":"Bóthar Ráth Garbh","fullname":"Grosvenor Road","fullnamelocalized":"","latitude":"53.31794","longitude":"-6.270031","operators":[{"name":"bac","routes":["15A"]}]},{"stopid":"1169","displaystopid":"1169","shortname":"Rathgar Road","shortnamelocalized":"Bóthar Ráth Garbh","fullname":"Rathmines Park","fullnamelocalized":"","latitude":"53.320033","longitude":"-6.268551","operators":[{"name":"bac","routes":["15A"]}]},{"stopid":"1170","displaystopid":"1170","shortname":"Rathgar Road","shortnamelocalized":"Bóthar Ráth Garbh","fullname":"Rathmines Road","fullnamelocalized":"","latitude":"53.321679","longitude":"-6.26653","operators":[{"name":"bac","routes":["15A"]}]},{"stopid":"1069","displaystopid":"1069","shortname":"Rathmines Road","shortnamelocalized":"Bóthar Ráth Maonais","fullname":"Leinster Road","fullnamelocalized":"","latitude":"53.323288","longitude":"-6.265598","operators":[{"name":"bac","routes":["15A"]}]},{"stopid":"1070","displaystopid":"1070","shortname":"Rathmines Road","shortnamelocalized":"Bóthar Ráth Maonais","fullname":"Williams Park","fullnamelocalized":"","latitude":"53.324969","longitude":"-6.2653","operators":[{"name":"bac","routes":["15A"]}]},{"stopid":"1071","displaystopid":"1071","shortname":"Rathmines Road","shortnamelocalized":"Bóthar Ráth Maonais","fullname":"Military Road","fullnamelocalized":"","latitude":"53.32729","longitude":"-6.26485","operators":[{"name":"bac","routes":["15A"]}]},{"stopid":"4528","displaystopid":"4528","shortname":"Rathmines Road","shortnamelocalized":"Bóthar Ráth Maonais","fullname":"Rathmines Road","fullnamelocalized":"","latitude":"53.32886111","longitude":"-6.264568889","operators":[{"name":"bac","routes":["15A"]}]},{"stopid":"1072","displaystopid":"1072","shortname":"Richmond Street","shortnamelocalized":"Sráid Richmond","fullname":"Lennox Street","fullnamelocalized":"","latitude":"53.331036","longitude":"-6.264575","operators":[{"name":"bac","routes":["15A"]}]},{"stopid":"7577","displaystopid":"7577","shortname":"Camden Street","shortnamelocalized":"Sráid Camden","fullname":"Camden Street","fullnamelocalized":"","latitude":"53.33370806","longitude":"-6.265218056","operators":[{"name":"bac","routes":["15A"]}]},{"stopid":"1353","displaystopid":"1353","shortname":"Camden Street","shortnamelocalized":"Sráid Camden","fullname":"Camden Street","fullnamelocalized":"","latitude":"53.33601","longitude":"-6.265415","operators":[{"name":"bac","routes":["15A"]}]},{"stopid":"1354","displaystopid":"1354","shortname":"Aungier Street","shortnamelocalized":"Sráid Aungier","fullname":"Aungier Street","fullnamelocalized":"","latitude":"53.33905","longitude":"-6.266066944","operators":[{"name":"bac","routes":["15A"]}]},{"stopid":"7578","displaystopid":"7578","shortname":"George's Street","shortnamelocalized":"Sr Sheoirse","fullname":"George's Street","fullnamelocalized":"","latitude":"53.34246","longitude":"-6.264601111","operators":[{"name":"bac","routes":["15A"]}]},{"stopid":"7582","displaystopid":"7582","shortname":"Dame Street","shortnamelocalized":"Sráid an Dáma","fullname":"Dame Street","fullnamelocalized":"","latitude":"53.34432306","longitude":"-6.262591111","operators":[{"name":"bac","routes":["15A"]}]},{"stopid":"340","displaystopid":"340","shortname":"Townsend St","shortnamelocalized":"Sr Chnoc na Lobhar","fullname":"Townsend St","fullnamelocalized":"","latitude":"53.34597","longitude":"-6.25614","operators":[{"name":"bac","routes":["15A"]}]},{"stopid":"407","displaystopid":"407","shortname":"Custom House Quay","shortnamelocalized":"Cé Theach an Chusta","fullname":"Custom House Quay","fullnamelocalized":"","latitude":"53.34833306","longitude":"-6.253853056","operators":[{"name":"bac","routes":["15A"]}]},{"stopid":"2498","displaystopid":"2498","shortname":"Custom House Quay","shortnamelocalized":"Cé Theach an Chusta","fullname":"Custom House Quay","fullnamelocalized":"","latitude":"53.34824306","longitude":"-6.250095","operators":[{"name":"bac","routes":["15A"]}]},{"stopid":"2499","displaystopid":"2499","shortname":"Custom House Quay","shortnamelocalized":"Cé Theach an Chusta","fullname":"Custom House Quay","fullnamelocalized":"","latitude":"53.34806389","longitude":"-6.247145","operators":[{"name":"bac","routes":["15A"]}]},{"stopid":"7216","displaystopid":"7216","shortname":"North Wall Quay","shortnamelocalized":"Cé an Phoirt Tdh","fullname":"North Wall Quay","fullnamelocalized":"","latitude":"53.34779","longitude":"-6.242868889","operators":[{"name":"bac","routes":["15A"]}]},{"stopid":"7558","displaystopid":"7558","shortname":"Cardiff Lane","shortnamelocalized":"Lána Chairdif ","fullname":"Cardiff Lane","fullnamelocalized":"","latitude":"53.34517111","longitude":"-6.24055","operators":[{"name":"bac","routes":["15A"]}]},{"stopid":"353","displaystopid":"353","shortname":"Pearse Street","shortnamelocalized":"Sráid an Phiarsaigh","fullname":"Pearse Street","fullnamelocalized":"","latitude":"53.342615","longitude":"-6.239613889","operators":[{"name":"bac","routes":["15A"]}]},{"stopid":"354","displaystopid":"354","shortname":"Ringsend Road","shortnamelocalized":"Bóthar na Rinne","fullname":"Ringsend Road","fullnamelocalized":"","latitude":"53.34222","longitude":"-6.236453056","operators":[{"name":"bac","routes":["15A"]}]}]}]}