{"errorcode":"0","errormessage":"","numberofresults":2,"route":"15b","timestamp":"30\/07\/2018 09:33:25","results":[{"operator":"bac","origin":"Grand Canal Dock (Benson Street)","originlocalized":"","destination":"Stocking Avenue","destinationlocalized":"Stocking Avenue","lastupdated":"27\/06\/2016 08:51:05","stops":[{"stopid":"2948","displaystopid":"2948","shortname":"Taylors Lane","shortnamelocalized":"Lána an Táilliúraig","fullname":"Taylors Lane","fullnamelocalized":"","latitude":"53.28194","longitude":"-6.296173056","operators":[{"name":"bac","routes":["15B"]}]},{"stopid":"2949","displaystopid":"2949","shortname":"Taylors Lane","shortnamelocalized":"Lána an Táilliúraig","fullname":"Taylors Lane","fullnamelocalized":"","latitude":"53.28166889","longitude":"-6.293231111","operators":[{"name":"bac","routes":["15B"]}]},{"stopid":"2950","displaystopid":"2950","shortname":"Taylors Lane","shortnamelocalized":"Lána an Táilliúraig","fullname":"Taylors Lane","fullnamelocalized":"","latitude":"53.28176306","longitude":"-6.288515","operators":[{"name":"bac","routes":["15B"]}]},{"stopid":"2954","displaystopid":"2954","shortname":"Whitechurch Green","shortnamelocalized":"Faiche an Teampaill","fullname":"Whitechurch Green","fullnamelocalized":"","latitude":"53.27803806","longitude":"-6.286301944","operators":[{"name":"bac","routes":["15B"]}]},{"stopid":"2955","displaystopid":"2955","shortname":"Whitechurch Green","shortnamelocalized":"Faiche an Teampaill","fullname":"Whitechurch Green","fullnamelocalized":"","latitude":"53.27786694","longitude":"-6.289526944","operators":[{"name":"bac","routes":["15B"]}]},{"stopid":"7371","displaystopid":"7371","shortname":"Rogerson's Quay","shortnamelocalized":"Cé Rogerson","fullname":"Rogerson's Quay","fullnamelocalized":"","latitude":"53.34631194","longitude":"-6.242976111","operators":[{"name":"bac","routes":["15B"]}]},{"stopid":"7077","displaystopid":"7077","shortname":"Benson Street","shortnamelocalized":"Sráid Benson","fullname":"Benson Street","fullnamelocalized":"","latitude":"53.345185","longitude":"-6.234326944","operators":[{"name":"bac","routes":["15B"]}]},{"stopid":"7221","displaystopid":"7221","shortname":"City Quay","shortnamelocalized":"Cé na Cathrach","fullname":"City Quay","fullnamelocalized":"","latitude":"53.34655111","longitude":"-6.245996111","operators":[{"name":"bac","routes":["15B"]}]},{"stopid":"7512","displaystopid":"7512","shortname":"Rogerson's Quay","shortnamelocalized":"Cé Rogerson","fullname":"Rogerson's Quay","fullnamelocalized":"","latitude":"53.34602806","longitude":"-6.237318889","operators":[{"name":"bac","routes":["15B"]}]},{"stopid":"395","displaystopid":"395","shortname":"Ringsend Road","shortnamelocalized":"Bóthar na Rinne","fullname":"Ringsend Road","fullnamelocalized":"","latitude":"53.34195694","longitude":"-6.235421944","operators":[{"name":"bac","routes":["15B"]}]},{"stopid":"396","displaystopid":"396","shortname":"Pearse Street","shortnamelocalized":"Sráid an Phiarsaigh","fullname":"Pearse Street","fullnamelocalized":"","latitude":"53.34246611","longitude":"-6.239713056","operators":[{"name":"bac","routes":["15B"]}]},{"stopid":"397","displaystopid":"397","shortname":"Pearse Street","shortnamelocalized":"Sráid an Phiarsaigh","fullname":"Pearse Street","fullnamelocalized":"","latitude":"53.34278111","longitude":"-6.242066944","operators":[{"name":"bac","routes":["15B"]}]},{"stopid":"398","displaystopid":"398","shortname":"Pearse Street","shortnamelocalized":"Sráid an Phiarsaigh","fullname":"Pearse Street","fullnamelocalized":"","latitude":"53.34329806","longitude":"-6.245531944","operators":[{"name":"bac","routes":["15B"]}]},{"stopid":"399","displaystopid":"399","shortname":"Pearse Street","shortnamelocalized":"Sráid an Phiarsaigh","fullname":"Pearse Street","fullnamelocalized":"","latitude":"53.34385194","longitude":"-6.248258056","operators":[{"name":"bac","routes":["15B"]}]},{"stopid":"400","displaystopid":"400","shortname":"Pearse Street","shortnamelocalized":"Sráid an Phiarsaigh","fullname":"Pearse Street","fullnamelocalized":"","latitude":"53.34482694","longitude":"-6.25323","operators":[{"name":"bac","routes":["15B"]}]},{"stopid":"7581","displaystopid":"7581","shortname":"Dame Street","shortnamelocalized":"Sráid an Dáma","fullname":"Dame Street","fullnamelocalized":"","latitude":"53.34416111","longitude":"-6.263345","operators":[{"name":"bac","routes":["15B"]}]},{"stopid":"1283","displaystopid":"1283","shortname":"George's St","shortnamelocalized":"Sr Sheoirse","fullname":"George's St","fullnamelocalized":"","latitude":"53.34180611","longitude":"-6.264921111","operators":[{"name":"bac","routes":["15B"]}]},{"stopid":"7579","displaystopid":"7579","shortname":"Redmond's Hill","shortnamelocalized":"Cnoc Réamainn","fullname":"Redmond's Hill","fullnamelocalized":"","latitude":"53.33824306","longitude":"-6.265916111","operators":[{"name":"bac","routes":["15B"]}]},{"stopid":"1285","displaystopid":"1285","shortname":"Camden St","shortnamelocalized":"Sráid Camden","fullname":"Camden St","fullnamelocalized":"","latitude":"53.33440194","longitude":"-6.265153889","operators":[{"name":"bac","routes":["15B"]}]},{"stopid":"1016","displaystopid":"1016","shortname":"Richmond Street","shortnamelocalized":"Sráid Richmond","fullname":"Lennox Street","fullnamelocalized":"","latitude":"53.33113","longitude":"-6.264413","operators":[{"name":"bac","routes":["15B"]}]},{"stopid":"1017","displaystopid":"1017","shortname":"Rathmines Road","shortnamelocalized":"Bóthar Ráth Maonais","fullname":"Grove Park","fullnamelocalized":"","latitude":"53.329366","longitude":"-6.264316","operators":[{"name":"bac","routes":["15B"]}]},{"stopid":"1018","displaystopid":"1018","shortname":"Rathmines Road","shortnamelocalized":"Bóthar Ráth Maonais","fullname":"Richmond Hill","fullnamelocalized":"","latitude":"53.327567","longitude":"-6.26464","operators":[{"name":"bac","routes":["15B"]}]},{"stopid":"1019","displaystopid":"1019","shortname":"Rathmines Road","shortnamelocalized":"Bóthar Ráth Maonais","fullname":"Military Road","fullnamelocalized":"","latitude":"53.326463","longitude":"-6.26484","operators":[{"name":"bac","routes":["15B"]}]},{"stopid":"1020","displaystopid":"1020","shortname":"Rathmines Road","shortnamelocalized":"Bóthar Ráth Maonais","fullname":"Town Centre","fullnamelocalized":"","latitude":"53.325077","longitude":"-6.265113","operators":[{"name":"bac","routes":["15B"]}]},{"stopid":"1076","displaystopid":"1076","shortname":"Rathmines Road","shortnamelocalized":"Bóthar Ráth Maonais","fullname":"Castlewood Ave","fullnamelocalized":"","latitude":"53.323158","longitude":"-6.265449","operators":[{"name":"bac","routes":["15B"]}]},{"stopid":"1077","displaystopid":"1077","shortname":"Rathgar Road","shortnamelocalized":"Bóthar Ráth Garbh","fullname":"Garda Station","fullnamelocalized":"","latitude":"53.321557","longitude":"-6.26656","operators":[{"name":"bac","routes":["15B"]}]},{"stopid":"1078","displaystopid":"1078","shortname":"Rathgar Road","shortnamelocalized":"Bóthar Ráth Garbh","fullname":"Rathgar Place","fullnamelocalized":"","latitude":"53.319465","longitude":"-6.268757","operators":[{"name":"bac","routes":["15B"]}]},{"stopid":"1079","displaystopid":"1079","shortname":"Rathgar Road","shortnamelocalized":"Bóthar Ráth Garbh","fullname":"Frankfort Avenue","fullnamelocalized":"","latitude":"53.316648","longitude":"-6.27075","operators":[{"name":"bac","routes":["15B"]}]},{"stopid":"1080","displaystopid":"1080","shortname":"Rathgar Road","shortnamelocalized":"Bóthar Ráth Garbh","fullname":"Auburn Villas","fullnamelocalized":"","latitude":"53.315005","longitude":"-6.271913","operators":[{"name":"bac","routes":["15B"]}]},{"stopid":"1081","displaystopid":"1081","shortname":"Rathgar Road","shortnamelocalized":"Bóthar Ráth Garbh","fullname":"Highfield Road","fullnamelocalized":"","latitude":"53.31267","longitude":"-6.273568","operators":[{"name":"bac","routes":["15B"]}]},{"stopid":"2914","displaystopid":"2914","shortname":"Orwell Road","shortnamelocalized":"Bóthar Orwell","fullname":"Orwell Road","fullnamelocalized":"","latitude":"53.31095389","longitude":"-6.273776944","operators":[{"name":"bac","routes":["15B"]}]},{"stopid":"2915","displaystopid":"2915","shortname":"Zion Road","shortnamelocalized":"Bóthar Shióin","fullname":"Zion Road","fullnamelocalized":"","latitude":"53.30940306","longitude":"-6.273693889","operators":[{"name":"bac","routes":["15B"]}]},{"stopid":"2916","displaystopid":"2916","shortname":"Bushy Park Rd","shortnamelocalized":"Br Pháirc na dTor","fullname":"Bushy Park Rd","fullnamelocalized":"","latitude":"53.30763889","longitude":"-6.274941111","operators":[{"name":"bac","routes":["15B"]}]},{"stopid":"2917","displaystopid":"2917","shortname":"Bushy Park Rd","shortnamelocalized":"Br Pháirc na dTor","fullname":"Bushy Park Rd","fullnamelocalized":"","latitude":"53.30748806","longitude":"-6.277595","operators":[{"name":"bac","routes":["15B"]}]},{"stopid":"2918","displaystopid":"2918","shortname":"Bushy Park Rd","shortnamelocalized":"Br Pháirc na dTor","fullname":"Bushy Park Rd","fullnamelocalized":"","latitude":"53.30736889","longitude":"-6.280798889","operators":[{"name":"bac","routes":["15B"]}]},{"stopid":"1300","displaystopid":"1300","shortname":"Rathfarnham Rd","shortnamelocalized":"Br Ráth Fearnáin","fullname":"Rathfarnham Rd","fullnamelocalized":"","latitude":"53.30620611","longitude":"-6.283445","operators":[{"name":"bac","routes":["15B"]}]},{"stopid":"1301","displaystopid":"1301","shortname":"Rathfarnham Rd","shortnamelocalized":"Br Ráth Fearnáin","fullname":"Rathfarnham Rd","fullnamelocalized":"","latitude":"53.30389111","longitude":"-6.283491111","operators":[{"name":"bac","routes":["15B"]}]},{"stopid":"1302","displaystopid":"1302","shortname":"Rathfarnham Rd","shortnamelocalized":"Br Ráth Fearnáin","fullname":"Rathfarnham Rd","fullnamelocalized":"","latitude":"53.30166111","longitude":"-6.283823056","operators":[{"name":"bac","routes":["15B"]}]},{"stopid":"1303","displaystopid":"1303","shortname":"Rathfarnham Rd","shortnamelocalized":"Br Ráth Fearnáin","fullname":"Rathfarnham Rd","fullnamelocalized":"","latitude":"53.2993","longitude":"-6.2838","operators":[{"name":"bac","routes":["15B"]}]},{"stopid":"5129","displaystopid":"5129","shortname":"Butterfield Ave","shortnamelocalized":"Ascl Ghort an Ime","fullname":"Butterfield Ave","fullnamelocalized":"","latitude":"53.297715","longitude":"-6.28602","operators":[{"name":"bac","routes":["15B"]}]},{"stopid":"5130","displaystopid":"5130","shortname":"Butterfield Ave","shortnamelocalized":"Ascl Ghort an Ime","fullname":"Butterfield Ave","fullnamelocalized":"","latitude":"53.296695","longitude":"-6.29331","operators":[{"name":"bac","routes":["15B"]}]},{"stopid":"1135","displaystopid":"1135","shortname":"Marian Road","shortnamelocalized":"Bóthar Mhuire","fullname":"Marian Park","fullnamelocalized":"","latitude":"53.293439","longitude":"-6.297276","operators":[{"name":"bac","routes":["15B"]}]},{"stopid":"7064","displaystopid":"7064","shortname":"Marian Road","shortnamelocalized":"Bóthar Mhuire","fullname":"Marian Road","fullnamelocalized":"","latitude":"53.28950806","longitude":"-6.298173889","operators":[{"name":"bac","routes":["15B"]}]},{"stopid":"7066","displaystopid":"7066","shortname":"Ballyroan Rd","shortnamelocalized":"Br Bhaile Uí Ruáin","fullname":"Ballyroan Rd","fullnamelocalized":"","latitude":"53.28769806","longitude":"-6.296283889","operators":[{"name":"bac","routes":["15B"]}]},{"stopid":"2924","displaystopid":"2924","shortname":"Ballyboden Rd","shortnamelocalized":"Br Bhaile Baodáin","fullname":"Ballyboden Rd","fullnamelocalized":"","latitude":"53.28582","longitude":"-6.294031944","operators":[{"name":"bac","routes":["15B"]}]},{"stopid":"2925","displaystopid":"2925","shortname":"Ballyboden Rd","shortnamelocalized":"Br Bhaile Baodáin","fullname":"Ballyboden Rd","fullnamelocalized":"","latitude":"53.28333306","longitude":"-6.296283889","operators":[{"name":"bac","routes":["15B"]}]},{"stopid":"7442","displaystopid":"7442","shortname":"Ballyboden Way","shortnamelocalized":"Blch Bhaile Baodáin","fullname":"Ballyboden Way","fullnamelocalized":"","latitude":"53.28247306","longitude":"-6.300741111","operators":[{"name":"bac","routes":["15B"]}]},{"stopid":"7446","displaystopid":"7446","shortname":"Ballyboden Way","shortnamelocalized":"Slí Bhaile Baodáin","fullname":"Ballyboden Way","fullnamelocalized":"","latitude":"53.28114111","longitude":"-6.307141111","operators":[{"name":"bac","routes":["15B"]}]},{"stopid":"7070","displaystopid":"7070","shortname":"Scholarstown Rd","shortnamelocalized":"Br Bhaile Scallart","fullname":"Scholarstown Rd","fullnamelocalized":"","latitude":"53.27942111","longitude":"-6.306678056","operators":[{"name":"bac","routes":["15B"]}]},{"stopid":"7445","displaystopid":"7445","shortname":"Scholarstown Rd","shortnamelocalized":"Br Bhaile Scallart","fullname":"Scholarstown Rd","fullnamelocalized":"","latitude":"53.27960389","longitude":"-6.30245","operators":[{"name":"bac","routes":["15B"]}]},{"stopid":"6339","displaystopid":"6339","shortname":"Stocking Lane","shortnamelocalized":"Lána Stoicín","fullname":"Stocking Lane","fullnamelocalized":"","latitude":"53.279355","longitude":"-6.300958889","operators":[{"name":"bac","routes":["15B"]}]},{"stopid":"6324","displaystopid":"6324","shortname":"Stocking Lane","shortnamelocalized":"Lána Stoicín","fullname":"Stocking Lane","fullnamelocalized":"","latitude":"53.27633306","longitude":"-6.30217","operators":[{"name":"bac","routes":["15B"]}]},{"stopid":"6325","displaystopid":"6325","shortname":"Stocking Lane","shortnamelocalized":"Lána Stoicín","fullname":"Stocking Lane","fullnamelocalized":"","latitude":"53.27454806","longitude":"-6.303495","operators":[{"name":"bac","routes":["15B"]}]},{"stopid":"6341","displaystopid":"6341","shortname":"Stocking Avenue","shortnamelocalized":"Ascaill Stoicín","fullname":"Stocking Avenue","fullnamelocalized":"","latitude":"53.27300889","longitude":"-6.308631944","operators":[{"name":"bac","routes":["15B"]}]},{"stopid":"6277","displaystopid":"6277","shortname":"Stocking Avenue","shortnamelocalized":"Ascaill Stoicín","fullname":"Stocking Lane","fullnamelocalized":"","latitude":"53.27291","longitude":"-6.313005","operators":[{"name":"bac","routes":["15B"]}]},{"stopid":"6278","displaystopid":"6278","shortname":"Stocking Avenue","shortnamelocalized":"Ascaill Stoicín","fullname":"Stocking Wood","fullnamelocalized":"","latitude":"53.273337","longitude":"-6.315646","operators":[{"name":"bac","routes":["15B"]}]},{"stopid":"6279","displaystopid":"6279","shortname":"Stocking Avenue","shortnamelocalized":"Ascaill Stoicín","fullname":"Dalriada Avenue","fullnamelocalized":"","latitude":"53.271775","longitude":"-6.322565","operators":[{"name":"bac","routes":["15B"]}]},{"stopid":"6280","displaystopid":"6280","shortname":"Stocking Avenue","shortnamelocalized":"Ascaill Stoicín","fullname":"Dalriada","fullnamelocalized":"","latitude":"53.271111","longitude":"-6.32601","operators":[{"name":"bac","routes":["15B"]}]}]},{"operator":"bac","origin":"Stocking Avenue","originlocalized":"Stocking Avenue","destination":"Grand Canal Dock (Benson Street)","destinationlocalized":"","lastupdated":"10\/02\/2016 15:01:49","stops":[{"stopid":"7067","displaystopid":"7067","shortname":"Whitechurch Green","shortnamelocalized":"Faiche an Teampaill","fullname":"Whitechurch Green","fullnamelocalized":"","latitude":"53.27782611","longitude":"-6.288748889","operators":[{"name":"bac","routes":["15B"]}]},{"stopid":"2956","displaystopid":"2956","shortname":"Whitechurch Green","shortnamelocalized":"Faiche an Teampaill","fullname":"Whitechurch Green","fullnamelocalized":"","latitude":"53.27811806","longitude":"-6.286146111","operators":[{"name":"bac","routes":["15B"]}]},{"stopid":"2965","displaystopid":"2965","shortname":"Whitechurch Rd","shortnamelocalized":"Br an Teampaill Ghi","fullname":"Whitechurch Rd","fullnamelocalized":"","latitude":"53.28037611","longitude":"-6.284323056","operators":[{"name":"bac","routes":["15B"]}]},{"stopid":"2983","displaystopid":"2983","shortname":"Taylors Lane","shortnamelocalized":"Lána an Táilliúraig","fullname":"Taylors Lane","fullnamelocalized":"","latitude":"53.28160694","longitude":"-6.287543056","operators":[{"name":"bac","routes":["15B"]}]},{"stopid":"2984","displaystopid":"2984","shortname":"Taylors Lane","shortnamelocalized":"Lána an Táilliúraig","fullname":"Taylors Lane","fullnamelocalized":"","latitude":"53.28151889","longitude":"-6.293685","operators":[{"name":"bac","routes":["15B"]}]},{"stopid":"7076","displaystopid":"7076","shortname":"Benson Street","shortnamelocalized":"Sráid Benson","fullname":"Benson Street","fullnamelocalized":"","latitude":"53.34535389","longitude":"-6.234283056","operators":[{"name":"bac","routes":["15B"]}]},{"stopid":"7589","displaystopid":"7589","shortname":"Aungier Street","shortnamelocalized":"Sráid Aungier","fullname":"Peter Row","fullnamelocalized":"","latitude":"53.339525","longitude":"-6.265948","operators":[{"name":"bac","routes":["15B"]}]},{"stopid":"6285","displaystopid":"6285","shortname":"Stocking Avenue","shortnamelocalized":"Ascaill Stoicín","fullname":"Dalriada","fullnamelocalized":"","latitude":"53.271096","longitude":"-6.32627","operators":[{"name":"bac","routes":["15B"]}]},{"stopid":"6286","displaystopid":"6286","shortname":"Stocking Avenue","shortnamelocalized":"Ascaill Stoicín","fullname":"Dalriada Avenue","fullnamelocalized":"","latitude":"53.271936","longitude":"-6.322181","operators":[{"name":"bac","routes":["15B"]}]},{"stopid":"6287","displaystopid":"6287","shortname":"Stocking Avenue","shortnamelocalized":"Ascaill Stoicín","fullname":"Stocking Wood","fullnamelocalized":"","latitude":"53.273449","longitude":"-6.316295","operators":[{"name":"bac","routes":["15B"]}]},{"stopid":"6288","displaystopid":"6288","shortname":"Stocking Avenue","shortnamelocalized":"Ascaill Stoicín","fullname":"Stocking Lane","fullnamelocalized":"","latitude":"53.272941","longitude":"-6.312611","operators":[{"name":"bac","routes":["15B"]}]},{"stopid":"6342","displaystopid":"6342","shortname":"Stocking Avenue","shortnamelocalized":"Ascaill Stoicín","fullname":"Stocking Avenue","fullnamelocalized":"","latitude":"53.27304194","longitude":"-6.307918889","operators":[{"name":"bac","routes":["15B"]}]},{"stopid":"6298","displaystopid":"6298","shortname":"Stocking Lane","shortnamelocalized":"Lána Stoicín","fullname":"Woodfield","fullnamelocalized":"","latitude":"53.2745","longitude":"-6.30373","operators":[{"name":"bac","routes":["15B"]}]},{"stopid":"6336","displaystopid":"6336","shortname":"Stocking Lane","shortnamelocalized":"Lána Stoicín","fullname":"Stocking Lane","fullnamelocalized":"","latitude":"53.27643389","longitude":"-6.302266111","operators":[{"name":"bac","routes":["15B"]}]},{"stopid":"7069","displaystopid":"7069","shortname":"Scholarstown Rd","shortnamelocalized":"Br Bhaile Scallart","fullname":"Scholarstown Rd","fullnamelocalized":"","latitude":"53.27938806","longitude":"-6.30654","operators":[{"name":"bac","routes":["15B"]}]},{"stopid":"7443","displaystopid":"7443","shortname":"Ballyboden Way","shortnamelocalized":"Blch Bhaile Baodáin","fullname":"Ballyboden Way","fullnamelocalized":"","latitude":"53.281455","longitude":"-6.306931111","operators":[{"name":"bac","routes":["15B"]}]},{"stopid":"7444","displaystopid":"7444","shortname":"Ballyboden Way","shortnamelocalized":"Slí Bhaile Baodáin","fullname":"Ballyboden Way","fullnamelocalized":"","latitude":"53.282405","longitude":"-6.299083889","operators":[{"name":"bac","routes":["15B"]}]},{"stopid":"2941","displaystopid":"2941","shortname":"Ballyboden Rd","shortnamelocalized":"Br Bhaile Baodáin","fullname":"Ballyboden Rd","fullnamelocalized":"","latitude":"53.28308611","longitude":"-6.296698889","operators":[{"name":"bac","routes":["15B"]}]},{"stopid":"2942","displaystopid":"2942","shortname":"Ballyboden Rd","shortnamelocalized":"Br Bhaile Baodáin","fullname":"Ballyboden Rd","fullnamelocalized":"","latitude":"53.28491806","longitude":"-6.295271944","operators":[{"name":"bac","routes":["15B"]}]},{"stopid":"7065","displaystopid":"7065","shortname":"Ballyroan Rd","shortnamelocalized":"Br Bhaile Uí Ruáin","fullname":"Ballyroan Rd","fullnamelocalized":"","latitude":"53.28835611","longitude":"-6.298283889","operators":[{"name":"bac","routes":["15B"]}]},{"stopid":"7063","displaystopid":"7063","shortname":"Marian Road","shortnamelocalized":"Bóthar Mhuire","fullname":"Marian Road","fullnamelocalized":"","latitude":"53.29024611","longitude":"-6.298011944","operators":[{"name":"bac","routes":["15B"]}]},{"stopid":"1137","displaystopid":"1137","shortname":"Marian Road","shortnamelocalized":"Bóthar Mhuire","fullname":"Marian Crescent","fullnamelocalized":"","latitude":"53.294366","longitude":"-6.297123","operators":[{"name":"bac","routes":["15B"]}]},{"stopid":"5131","displaystopid":"5131","shortname":"Butterfield Ave","shortnamelocalized":"Ascl Ghort an Ime","fullname":"Butterfield Ave","fullnamelocalized":"","latitude":"53.29676111","longitude":"-6.293848889","operators":[{"name":"bac","routes":["15B"]}]},{"stopid":"5132","displaystopid":"5132","shortname":"Butterfield Ave","shortnamelocalized":"Ascl Ghort an Ime","fullname":"Butterfield Ave","fullnamelocalized":"","latitude":"53.29752694","longitude":"-6.288703889","operators":[{"name":"bac","routes":["15B"]}]},{"stopid":"1331","displaystopid":"1331","shortname":"Rathfarnham Rd","shortnamelocalized":"Br Ráth Fearnáin","fullname":"Rathfarnham Rd","fullnamelocalized":"","latitude":"53.29850111","longitude":"-6.28459","operators":[{"name":"bac","routes":["15B"]}]},{"stopid":"1332","displaystopid":"1332","shortname":"Rathfarnham Rd","shortnamelocalized":"Br Ráth Fearnáin","fullname":"Rathfarnham Rd","fullnamelocalized":"","latitude":"53.30076694","longitude":"-6.28403","operators":[{"name":"bac","routes":["15B"]}]},{"stopid":"1333","displaystopid":"1333","shortname":"Rathfarnham Rd","shortnamelocalized":"Br Ráth Fearnáin","fullname":"Rathfarnham Rd","fullnamelocalized":"","latitude":"53.30310111","longitude":"-6.284045","operators":[{"name":"bac","routes":["15B"]}]},{"stopid":"1334","displaystopid":"1334","shortname":"Rathfarnham Rd","shortnamelocalized":"Br Ráth Fearnáin","fullname":"Rathfarnham Rd","fullnamelocalized":"","latitude":"53.30484389","longitude":"-6.283446111","operators":[{"name":"bac","routes":["15B"]}]},{"stopid":"2985","displaystopid":"2985","shortname":"Bushy Park Rd","shortnamelocalized":"Br Pháirc na dTor","fullname":"Bushy Park Rd","fullnamelocalized":"","latitude":"53.307295","longitude":"-6.283118889","operators":[{"name":"bac","routes":["15B"]}]},{"stopid":"2986","displaystopid":"2986","shortname":"Bushy Park Rd","shortnamelocalized":"Br Pháirc na dTor","fullname":"Bushy Park Rd","fullnamelocalized":"","latitude":"53.30759694","longitude":"-6.276573056","operators":[{"name":"bac","routes":["15B"]}]},{"stopid":"2988","displaystopid":"2988","shortname":"Zion Road","shortnamelocalized":"Bóthar Shióin","fullname":"Zion Road","fullnamelocalized":"","latitude":"53.30837611","longitude":"-6.273503889","operators":[{"name":"bac","routes":["15B"]}]},{"stopid":"3001","displaystopid":"3001","shortname":"Orwell Road","shortnamelocalized":"Bóthar Orwell","fullname":"Orwell Road","fullnamelocalized":"","latitude":"53.310185","longitude":"-6.273783056","operators":[{"name":"bac","routes":["15B"]}]},{"stopid":"3002","displaystopid":"3002","shortname":"Orwell Road","shortnamelocalized":"Bóthar Orwell","fullname":"Orwell Road","fullnamelocalized":"","latitude":"53.31121389","longitude":"-6.274163056","operators":[{"name":"bac","routes":["15B"]}]},{"stopid":"1166","displaystopid":"1166","shortname":"Rathgar Road","shortnamelocalized":"Bóthar Ráth Garbh","fullname":"Winton Avenue","fullnamelocalized":"","latitude":"53.313907","longitude":"-6.272877","operators":[{"name":"bac","routes":["15B"]}]},{"stopid":"1167","displaystopid":"1167","shortname":"Rathgar Road","shortnamelocalized":"Bóthar Ráth Garbh","fullname":"Garville Avenue","fullnamelocalized":"","latitude":"53.315954","longitude":"-6.27143","operators":[{"name":"bac","routes":["15B"]}]},{"stopid":"1168","displaystopid":"1168","shortname":"Rathgar Road","shortnamelocalized":"Bóthar Ráth Garbh","fullname":"Grosvenor Road","fullnamelocalized":"","latitude":"53.31794","longitude":"-6.270031","operators":[{"name":"bac","routes":["15B"]}]},{"stopid":"1169","displaystopid":"1169","shortname":"Rathgar Road","shortnamelocalized":"Bóthar Ráth Garbh","fullname":"Rathmines Park","fullnamelocalized":"","latitude":"53.320033","longitude":"-6.268551","operators":[{"name":"bac","routes":["15B"]}]},{"stopid":"1170","displaystopid":"1170","shortname":"Rathgar Road","shortnamelocalized":"Bóthar Ráth Garbh","fullname":"Rathmines Road","fullnamelocalized":"","latitude":"53.321679","longitude":"-6.26653","operators":[{"name":"bac","routes":["15B"]}]},{"stopid":"1069","displaystopid":"1069","shortname":"Rathmines Road","shortnamelocalized":"Bóthar Ráth Maonais","fullname":"Leinster Road","fullnamelocalized":"","latitude":"53.323288","longitude":"-6.265598","operators":[{"name":"bac","routes":["15B"]}]},{"stopid":"1070","displaystopid":"1070","shortname":"Rathmines Road","shortnamelocalized":"Bóthar Ráth Maonais","fullname":"Williams Park","fullnamelocalized":"","latitude":"53.324969","longitude":"-6.2653","operators":[{"name":"bac","routes":["15B"]}]},{"stopid":"1071","displaystopid":"1071","shortname":"Rathmines Road","shortnamelocalized":"Bóthar Ráth Maonais","fullname":"Military Road","fullnamelocalized":"","latitude":"53.32729","longitude":"-6.26485","operators":[{"name":"bac","routes":["15B"]}]},{"stopid":"4528","displaystopid":"4528","shortname":"Rathmines Road","shortnamelocalized":"Bóthar Ráth Maonais","fullname":"Rathmines Road","fullnamelocalized":"","latitude":"53.32886111","longitude":"-6.264568889","operators":[{"name":"bac","routes":["15B"]}]},{"stopid":"1072","displaystopid":"1072","shortname":"Richmond Street","shortnamelocalized":"Sráid Richmond","fullname":"Lennox Street","fullnamelocalized":"","latitude":"53.331036","longitude":"-6.264575","operators":[{"name":"bac","routes":["15B"]}]},{"stopid":"7577","displaystopid":"7577","shortname":"Camden Street","shortnamelocalized":"Sráid Camden","fullname":"Camden Street","fullnamelocalized":"","latitude":"53.33370806","longitude":"-6.265218056","operators":[{"name":"bac","routes":["15B"]}]},{"stopid":"1353","displaystopid":"1353","shortname":"Camden Street","shortnamelocalized":"Sráid Camden","fullname":"Camden Street","fullnamelocalized":"","latitude":"53.33601","longitude":"-6.265415","operators":[{"name":"bac","routes":["15B"]}]},{"stopid":"1354","displaystopid":"1354","shortname":"Aungier Street","shortnamelocalized":"Sráid Aungier","fullname":"Aungier Street","fullnamelocalized":"","latitude":"53.33905","longitude":"-6.266066944","operators":[{"name":"bac","routes":["15B"]}]},{"stopid":"7578","displaystopid":"7578","shortname":"George's Street","shortnamelocalized":"Sr Sheoirse","fullname":"George's Street","fullnamelocalized":"","latitude":"53.34246","longitude":"-6.264601111","operators":[{"name":"bac","routes":["15B"]}]},{"stopid":"7582","displaystopid":"7582","shortname":"Dame Street","shortnamelocalized":"Sráid an Dáma","fullname":"Dame Street","fullnamelocalized":"","latitude":"53.34432306","longitude":"-6.262591111","operators":[{"name":"bac","routes":["15B"]}]},{"stopid":"340","displaystopid":"340","shortname":"Townsend St","shortnamelocalized":"Sr Chnoc na Lobhar","fullname":"Townsend St","fullnamelocalized":"","latitude":"53.34597","longitude":"-6.25614","operators":[{"name":"bac","routes":["15B"]}]},{"stopid":"407","displaystopid":"407","shortname":"Custom House Quay","shortnamelocalized":"Cé Theach an Chusta","fullname":"Custom House Quay","fullnamelocalized":"","latitude":"53.34833306","longitude":"-6.253853056","operators":[{"name":"bac","routes":["15B"]}]},{"stopid":"2498","displaystopid":"2498","shortname":"Custom House Quay","shortnamelocalized":"Cé Theach an Chusta","fullname":"Custom House Quay","fullnamelocalized":"","latitude":"53.34824306","longitude":"-6.250095","operators":[{"name":"bac","routes":["15B"]}]},{"stopid":"2499","displaystopid":"2499","shortname":"Custom House Quay","shortnamelocalized":"Cé Theach an Chusta","fullname":"Custom House Quay","fullnamelocalized":"","latitude":"53.34806389","longitude":"-6.247145","operators":[{"name":"bac","routes":["15B"]}]},{"stopid":"7216","displaystopid":"7216","shortname":"North Wall Quay","shortnamelocalized":"Cé an Phoirt Tdh","fullname":"North Wall Quay","fullnamelocalized":"","latitude":"53.34779","longitude":"-6.242868889","operators":[{"name":"bac","routes":["15B"]}]},{"stopid":"7558","displaystopid":"7558","shortname":"Cardiff Lane","shortnamelocalized":"Lána Chairdif ","fullname":"Cardiff Lane","fullnamelocalized":"","latitude":"53.34517111","longitude":"-6.24055","operators":[{"name":"bac","routes":["15B"]}]},{"stopid":"353","displaystopid":"353","shortname":"Pearse Street","shortnamelocalized":"Sráid an Phiarsaigh","fullname":"Pearse Street","fullnamelocalized":"","latitude":"53.342615","longitude":"-6.239613889","operators":[{"name":"bac","routes":["15B"]}]},{"stopid":"354","displaystopid":"354","shortname":"Ringsend Road","shortnamelocalized":"Bóthar na Rinne","fullname":"Ringsend Road","fullnamelocalized":"","latitude":"53.34222","longitude":"-6.236453056","operators":[{"name":"bac","routes":["15B"]}]}]}]}