{"errorcode":"0","errormessage":"","numberofresults":2,"route":"185","timestamp":"30\/07\/2018 10:16:58","results":[{"operator":"bac","origin":"Bray Station","originlocalized":"Stáisiún Bhré ","destination":"Shop River","destinationlocalized":"Na Geataí Óir","lastupdated":"23\/07\/2018 09:45:10","stops":[{"stopid":"4421","displaystopid":"4421","shortname":"Beech Road Bray","shortnamelocalized":"Bóthar na Feá Bré","fullname":"Beech Road Bray","fullnamelocalized":"","latitude":"53.20778694","longitude":"-6.119638056","operators":[{"name":"bac","routes":["185"]}]},{"stopid":"2113","displaystopid":"2113","shortname":"St. Peter's Road","shortnamelocalized":"Bóthar Pheadair","fullname":"St. Peter's Road","fullnamelocalized":"","latitude":"53.20954889","longitude":"-6.11828","operators":[{"name":"bac","routes":["185"]}]},{"stopid":"4187","displaystopid":"4187","shortname":"Bray Road","shortnamelocalized":"Bóthar Bhré","fullname":"Bray Road","fullnamelocalized":"","latitude":"53.19342","longitude":"-6.135665","operators":[{"name":"bac","routes":["185"]}]},{"stopid":"4189","displaystopid":"4189","shortname":"Kilcroney Gate","shortnamelocalized":"Geata Chill Chróine","fullname":"Kilcroney Gate","fullnamelocalized":"","latitude":"53.19015889","longitude":"-6.141676111","operators":[{"name":"bac","routes":["185"]}]},{"stopid":"4190","displaystopid":"4190","shortname":"Enniskerry","shortnamelocalized":"Áth na Sceire","fullname":"Enniskerry","fullnamelocalized":"","latitude":"53.19202806","longitude":"-6.159118056","operators":[{"name":"bac","routes":["185"]}]},{"stopid":"4097","displaystopid":"4097","shortname":"Enniskerry Village","shortnamelocalized":"Sráidbhaile Áth na ","fullname":"Enniskerry Village","fullnamelocalized":"","latitude":"53.19300306","longitude":"-6.170108889","operators":[{"name":"bac","routes":["185"]}]},{"stopid":"4103","displaystopid":"4103","shortname":"Kilgarron Road","shortnamelocalized":"Bóthar Kilgarron","fullname":"Kilgarron Road","fullnamelocalized":"","latitude":"53.19275611","longitude":"-6.18188","operators":[{"name":"bac","routes":["185"]}]},{"stopid":"4104","displaystopid":"4104","shortname":"Kilgarron Road","shortnamelocalized":"Bóthar Chill Dónáin","fullname":"Kilgarron Road","fullnamelocalized":"","latitude":"53.19325889","longitude":"-6.185796111","operators":[{"name":"bac","routes":["185"]}]},{"stopid":"4105","displaystopid":"4105","shortname":"Kilmolin Road","shortnamelocalized":"Bóthar Chill Moling","fullname":"Kilmolin Road","fullnamelocalized":"","latitude":"53.19534806","longitude":"-6.191716111","operators":[{"name":"bac","routes":["185"]}]},{"stopid":"4106","displaystopid":"4106","shortname":"Kilmolin Road","shortnamelocalized":"Bóthar Chill Moling","fullname":"Kilmolin Road","fullnamelocalized":"","latitude":"53.19621806","longitude":"-6.192828056","operators":[{"name":"bac","routes":["185"]}]},{"stopid":"6139","displaystopid":"6139","shortname":"Kilmolin Road","shortnamelocalized":"Bóthar Chill Moling","fullname":"Golf Course","fullnamelocalized":"","latitude":"53.195442","longitude":"-6.195873","operators":[{"name":"bac","routes":["185"]}]},{"stopid":"4108","displaystopid":"4108","shortname":"Kilmolin Road","shortnamelocalized":"Bóthar Chill Moling","fullname":"Kilmolin Road","fullnamelocalized":"","latitude":"53.19184694","longitude":"-6.200636111","operators":[{"name":"bac","routes":["185"]}]},{"stopid":"4167","displaystopid":"4167","shortname":"Bray","shortnamelocalized":"Bré","fullname":"Bray","fullnamelocalized":"","latitude":"53.20460694","longitude":"-6.101158056","operators":[{"name":"bac","routes":["185"]}]},{"stopid":"4170","displaystopid":"4170","shortname":"Florence Road","shortnamelocalized":"Bóthar Fhlórans","fullname":"Florence Road","fullnamelocalized":"","latitude":"53.20346611","longitude":"-6.107015","operators":[{"name":"bac","routes":["185"]}]},{"stopid":"4153","displaystopid":"4153","shortname":"Main Street Bray","shortnamelocalized":"An tSráid Mhór Bré","fullname":"Main Street Bray","fullnamelocalized":"","latitude":"53.20491111","longitude":"-6.109491944","operators":[{"name":"bac","routes":["185"]}]},{"stopid":"4154","displaystopid":"4154","shortname":"Bray Castle St","shortnamelocalized":"Bré - Sr an Chaisle","fullname":"Bray Castle St","fullnamelocalized":"","latitude":"53.20667194","longitude":"-6.11246","operators":[{"name":"bac","routes":["185"]}]},{"stopid":"4183","displaystopid":"4183","shortname":"Dargle Road","shortnamelocalized":"Bóthar na Deargaile","fullname":"Dargle Road","fullnamelocalized":"","latitude":"53.20705611","longitude":"-6.114536944","operators":[{"name":"bac","routes":["185"]}]},{"stopid":"4184","displaystopid":"4184","shortname":"Dargle Road","shortnamelocalized":"Bóthar na Deargaile","fullname":"Dargle Road","fullnamelocalized":"","latitude":"53.20518389","longitude":"-6.119341111","operators":[{"name":"bac","routes":["185"]}]},{"stopid":"4185","displaystopid":"4185","shortname":"Dargle Road","shortnamelocalized":"Bóthar na Deargaile","fullname":"Dargle Road","fullnamelocalized":"","latitude":"53.20321389","longitude":"-6.121991111","operators":[{"name":"bac","routes":["185"]}]},{"stopid":"4584","displaystopid":"4584","shortname":"Dargle Road","shortnamelocalized":"Bóthar na Deargaile","fullname":"Dargle Road","fullnamelocalized":"","latitude":"53.20108","longitude":"-6.127338056","operators":[{"name":"bac","routes":["185"]}]},{"stopid":"4186","displaystopid":"4186","shortname":"Dargle Road","shortnamelocalized":"Bóthar na Deargaile","fullname":"Dargle Road","fullnamelocalized":"","latitude":"53.19820611","longitude":"-6.130973056","operators":[{"name":"bac","routes":["185"]}]},{"stopid":"4422","displaystopid":"4422","shortname":"Dargle Road","shortnamelocalized":"Bóthar na Deargaile","fullname":"Dargle Road","fullnamelocalized":"","latitude":"53.20095306","longitude":"-6.127786111","operators":[{"name":"bac","routes":["185"]}]},{"stopid":"4199","displaystopid":"4199","shortname":"Dargle Road","shortnamelocalized":"Bóthar na Deargaile","fullname":"Dargle Road","fullnamelocalized":"","latitude":"53.20711694","longitude":"-6.114666111","operators":[{"name":"bac","routes":["185"]}]},{"stopid":"4416","displaystopid":"4416","shortname":"Dublin Rd Bray","shortnamelocalized":"Br Bhaile Átha Clia","fullname":"Dublin Rd Bray","fullnamelocalized":"","latitude":"53.208395","longitude":"-6.114753056","operators":[{"name":"bac","routes":["185"]}]},{"stopid":"4417","displaystopid":"4417","shortname":"Beech Road Bray","shortnamelocalized":"Bóthar na Feá Bré","fullname":"Beech Road Bray","fullnamelocalized":"","latitude":"53.20923194","longitude":"-6.118098889","operators":[{"name":"bac","routes":["185"]}]},{"stopid":"4419","displaystopid":"4419","shortname":"Raverty Villas","shortnamelocalized":"Bailtíní Ui Rabhart","fullname":"Raverty Villas","fullnamelocalized":"","latitude":"53.20752111","longitude":"-6.118281111","operators":[{"name":"bac","routes":["185"]}]},{"stopid":"4420","displaystopid":"4420","shortname":"Maple Grove","shortnamelocalized":"Garrán na Mailpe","fullname":"Maple Grove","fullnamelocalized":"","latitude":"53.20669389","longitude":"-6.122186111","operators":[{"name":"bac","routes":["185"]}]}]},{"operator":"bac","origin":"Shop River","originlocalized":"Na Geataí Óir","destination":"Bray Station","destinationlocalized":"Stáisiún Bhré ","lastupdated":"23\/07\/2018 09:45:22","stops":[{"stopid":"4108","displaystopid":"4108","shortname":"Kilmolin Road","shortnamelocalized":"Bóthar Chill Moling","fullname":"Kilmolin Road","fullnamelocalized":"","latitude":"53.19184694","longitude":"-6.200636111","operators":[{"name":"bac","routes":["185"]}]},{"stopid":"4109","displaystopid":"4109","shortname":"Kilmolin Road","shortnamelocalized":"Bóthar Chill Moling","fullname":"Kilmolin Road","fullnamelocalized":"","latitude":"53.19574694","longitude":"-6.195306111","operators":[{"name":"bac","routes":["185"]}]},{"stopid":"4110","displaystopid":"4110","shortname":"Kilmolin Road","shortnamelocalized":"Bóthar Chill Moling","fullname":"Kilmolin Road","fullnamelocalized":"","latitude":"53.19603806","longitude":"-6.19234","operators":[{"name":"bac","routes":["185"]}]},{"stopid":"4111","displaystopid":"4111","shortname":"Kilmolin Road","shortnamelocalized":"Bóthar Chill Moling","fullname":"Kilmolin Road","fullnamelocalized":"","latitude":"53.19512806","longitude":"-6.191411944","operators":[{"name":"bac","routes":["185"]}]},{"stopid":"4112","displaystopid":"4112","shortname":"Kilgarron Road","shortnamelocalized":"Bóthar Kilgarron","fullname":"Kilgarron Road","fullnamelocalized":"","latitude":"53.19325306","longitude":"-6.185208889","operators":[{"name":"bac","routes":["185"]}]},{"stopid":"4113","displaystopid":"4113","shortname":"Kilgarron Road","shortnamelocalized":"Bóthar Chill Dónáin","fullname":"Kilgarron Road","fullnamelocalized":"","latitude":"53.192815","longitude":"-6.18183","operators":[{"name":"bac","routes":["185"]}]},{"stopid":"4095","displaystopid":"4095","shortname":"Enniskerry Village","shortnamelocalized":"SrBhl Áth na Sceire","fullname":"Enniskerry Village","fullnamelocalized":"","latitude":"53.19294194","longitude":"-6.170385","operators":[{"name":"bac","routes":["185"]}]},{"stopid":"4192","displaystopid":"4192","shortname":"Enniskerry","shortnamelocalized":"Áth na Sceire","fullname":"Enniskerry","fullnamelocalized":"","latitude":"53.19146111","longitude":"-6.158235","operators":[{"name":"bac","routes":["185"]}]},{"stopid":"4194","displaystopid":"4194","shortname":"Enniskerry","shortnamelocalized":"Áth na Sceire","fullname":"Enniskerry","fullnamelocalized":"","latitude":"53.19012694","longitude":"-6.141096944","operators":[{"name":"bac","routes":["185"]}]},{"stopid":"4416","displaystopid":"4416","shortname":"Dublin Rd Bray","shortnamelocalized":"Br Bhaile Átha Clia","fullname":"Dublin Rd Bray","fullnamelocalized":"","latitude":"53.208395","longitude":"-6.114753056","operators":[{"name":"bac","routes":["185"]}]},{"stopid":"4417","displaystopid":"4417","shortname":"Beech Road Bray","shortnamelocalized":"Bóthar na Feá Bré","fullname":"Beech Road Bray","fullnamelocalized":"","latitude":"53.20923194","longitude":"-6.118098889","operators":[{"name":"bac","routes":["185"]}]},{"stopid":"4419","displaystopid":"4419","shortname":"Raverty Villas","shortnamelocalized":"Bailtíní Ui Rabhart","fullname":"Raverty Villas","fullnamelocalized":"","latitude":"53.20752111","longitude":"-6.118281111","operators":[{"name":"bac","routes":["185"]}]},{"stopid":"4420","displaystopid":"4420","shortname":"Maple Grove","shortnamelocalized":"Garrán na Mailpe","fullname":"Maple Grove","fullnamelocalized":"","latitude":"53.20669389","longitude":"-6.122186111","operators":[{"name":"bac","routes":["185"]}]},{"stopid":"4421","displaystopid":"4421","shortname":"Beech Road Bray","shortnamelocalized":"Bóthar na Feá Bré","fullname":"Beech Road Bray","fullnamelocalized":"","latitude":"53.20778694","longitude":"-6.119638056","operators":[{"name":"bac","routes":["185"]}]},{"stopid":"2113","displaystopid":"2113","shortname":"St. Peter's Road","shortnamelocalized":"Bóthar Pheadair","fullname":"St. Peter's Road","fullnamelocalized":"","latitude":"53.20954889","longitude":"-6.11828","operators":[{"name":"bac","routes":["185"]}]},{"stopid":"4183","displaystopid":"4183","shortname":"Dargle Road","shortnamelocalized":"Bóthar na Deargaile","fullname":"Dargle Road","fullnamelocalized":"","latitude":"53.20705611","longitude":"-6.114536944","operators":[{"name":"bac","routes":["185"]}]},{"stopid":"4196","displaystopid":"4196","shortname":"Dargle Road","shortnamelocalized":"Bóthar na Deargaile","fullname":"Dargle Road","fullnamelocalized":"","latitude":"53.198765","longitude":"-6.130651944","operators":[{"name":"bac","routes":["185"]}]},{"stopid":"4422","displaystopid":"4422","shortname":"Dargle Road","shortnamelocalized":"Bóthar na Deargaile","fullname":"Dargle Road","fullnamelocalized":"","latitude":"53.20095306","longitude":"-6.127786111","operators":[{"name":"bac","routes":["185"]}]},{"stopid":"7369","displaystopid":"7369","shortname":"Dargle Road","shortnamelocalized":"Bóthar na Deargaile","fullname":"Dargle Road","fullnamelocalized":"","latitude":"53.203505","longitude":"-6.121741111","operators":[{"name":"bac","routes":["185"]}]},{"stopid":"7295","displaystopid":"7295","shortname":"Dargle Road","shortnamelocalized":"Bóthar na Deargaile","fullname":"Dargle Road","fullnamelocalized":"","latitude":"53.20528306","longitude":"-6.119371111","operators":[{"name":"bac","routes":["185"]}]},{"stopid":"4199","displaystopid":"4199","shortname":"Dargle Road","shortnamelocalized":"Bóthar na Deargaile","fullname":"Dargle Road","fullnamelocalized":"","latitude":"53.20711694","longitude":"-6.114666111","operators":[{"name":"bac","routes":["185"]}]},{"stopid":"4131","displaystopid":"4131","shortname":"Castle Street","shortnamelocalized":"Sráid an Chaisleáin","fullname":"Castle Street","fullnamelocalized":"","latitude":"53.20654111","longitude":"-6.11148","operators":[{"name":"bac","routes":["185"]}]},{"stopid":"7294","displaystopid":"7294","shortname":"Bray Main Street","shortnamelocalized":"An tSráid Mhór Bré","fullname":"Bray Main Street","fullnamelocalized":"","latitude":"53.20471","longitude":"-6.109256111","operators":[{"name":"bac","routes":["185"]}]},{"stopid":"4156","displaystopid":"4156","shortname":"Quinsborough Rd","shortnamelocalized":"Br Bhaile Uí Chuinn","fullname":"Quinsborough Rd","fullnamelocalized":"","latitude":"53.20496889","longitude":"-6.103593056","operators":[{"name":"bac","routes":["185"]}]},{"stopid":"4167","displaystopid":"4167","shortname":"Bray","shortnamelocalized":"Bré","fullname":"Bray","fullnamelocalized":"","latitude":"53.20460694","longitude":"-6.101158056","operators":[{"name":"bac","routes":["185"]}]}]}]}