{"errorcode":"0","errormessage":"","numberofresults":2,"route":"25d","timestamp":"30\/07\/2018 09:44:15","results":[{"operator":"bac","origin":"Adamstown Station","originlocalized":"","destination":"Merrion Square","destinationlocalized":"Cearnóg Mhuirfean","lastupdated":"23\/07\/2018 09:46:19","stops":[{"stopid":"6290","displaystopid":"6290","shortname":"Adamstown","shortnamelocalized":"Baile Adaim","fullname":"Railway Station","fullnamelocalized":"","latitude":"53.337157","longitude":"-6.473513","operators":[{"name":"bac","routes":["25D"]}]},{"stopid":"7120","displaystopid":"7120","shortname":"Adamstown Ave","shortnamelocalized":"Ascl Bhaile Adaim","fullname":"Adamstown Ave","fullnamelocalized":"","latitude":"53.337555","longitude":"-6.463501111","operators":[{"name":"bac","routes":["25D"]}]},{"stopid":"7119","displaystopid":"7119","shortname":"Castlegate Way","shortnamelocalized":"Slí Gheata an Chais","fullname":"Castlegate Way","fullnamelocalized":"","latitude":"53.33781","longitude":"-6.459695","operators":[{"name":"bac","routes":["25D"]}]},{"stopid":"7127","displaystopid":"7127","shortname":"Adamstown","shortnamelocalized":"Baile Adaim","fullname":"Adamstown","fullnamelocalized":"","latitude":"53.33821111","longitude":"-6.456773889","operators":[{"name":"bac","routes":["25D"]}]},{"stopid":"7143","displaystopid":"7143","shortname":"Newcastle Rd","shortnamelocalized":"Br an Chaisleáin Nu","fullname":"Newcastle Rd","fullnamelocalized":"","latitude":"53.33934889","longitude":"-6.453198056","operators":[{"name":"bac","routes":["25D"]}]},{"stopid":"7168","displaystopid":"7168","shortname":"Newcastle Rd","shortnamelocalized":"Br an Chaisleáin Nu","fullname":"Newcastle Rd","fullnamelocalized":"","latitude":"53.34521806","longitude":"-6.451706111","operators":[{"name":"bac","routes":["25D"]}]},{"stopid":"4616","displaystopid":"4616","shortname":"Newcastle Rd","shortnamelocalized":"Br an Chaisleáin Nu","fullname":"Newcastle Rd","fullnamelocalized":"","latitude":"53.34773389","longitude":"-6.451055","operators":[{"name":"bac","routes":["25D"]}]},{"stopid":"2227","displaystopid":"2227","shortname":"Adamstown Road","shortnamelocalized":"Bóthar Bhaile Adaim","fullname":"Adamstown Road","fullnamelocalized":"","latitude":"53.34946611","longitude":"-6.450301111","operators":[{"name":"bac","routes":["25D"]}]},{"stopid":"7049","displaystopid":"7049","shortname":"Lucan Bypass","shortnamelocalized":"Seachród Leamhcáin","fullname":"Lucan Bypass","fullnamelocalized":"","latitude":"53.3513","longitude":"-6.4493","operators":[{"name":"bac","routes":["25D"]}]},{"stopid":"2236","displaystopid":"2236","shortname":"Lucan Road","shortnamelocalized":"Bóthar Leamhcáin","fullname":"Lucan Road","fullnamelocalized":"","latitude":"53.35884694","longitude":"-6.410863056","operators":[{"name":"bac","routes":["25D"]}]},{"stopid":"2238","displaystopid":"2238","shortname":"Lucan Road","shortnamelocalized":"Bóthar Leamhcáin","fullname":"Lucan Road","fullnamelocalized":"","latitude":"53.35775389","longitude":"-6.4052","operators":[{"name":"bac","routes":["25D"]}]},{"stopid":"5056","displaystopid":"5056","shortname":"Lucan Road","shortnamelocalized":"Bóthar Leamhcáin","fullname":"Lucan Road","fullnamelocalized":"","latitude":"53.35751389","longitude":"-6.402778889","operators":[{"name":"bac","routes":["25D"]}]},{"stopid":"2239","displaystopid":"2239","shortname":"Lucan Road","shortnamelocalized":"Bóthar Leamhcáin","fullname":"Lucan Road","fullnamelocalized":"","latitude":"53.356","longitude":"-6.3919","operators":[{"name":"bac","routes":["25D"]}]},{"stopid":"2241","displaystopid":"2241","shortname":"Lucan Road","shortnamelocalized":"Bóthar Leamhcáin","fullname":"Lucan Road","fullnamelocalized":"","latitude":"53.35492389","longitude":"-6.371258889","operators":[{"name":"bac","routes":["25D"]}]},{"stopid":"2242","displaystopid":"2242","shortname":"Lucan Road","shortnamelocalized":"Bóthar Leamhcáin","fullname":"Lucan Road","fullnamelocalized":"","latitude":"53.35392389","longitude":"-6.366988889","operators":[{"name":"bac","routes":["25D"]}]},{"stopid":"7435","displaystopid":"7435","shortname":"Con Colbert Rd","shortnamelocalized":"Br Choinn Colbaird","fullname":"Con Colbert Rd","fullnamelocalized":"","latitude":"53.34318111","longitude":"-6.315365","operators":[{"name":"bac","routes":["25D"]}]},{"stopid":"2722","displaystopid":"2722","shortname":"Con Colbert Rd","shortnamelocalized":"Br Choinn Colbaird","fullname":"Con Colbert Rd","fullnamelocalized":"","latitude":"53.34343889","longitude":"-6.31138","operators":[{"name":"bac","routes":["25D"]}]},{"stopid":"4413","displaystopid":"4413","shortname":"St. John's Road","shortnamelocalized":"Bóthar Eoin","fullname":"St. John's Road","fullnamelocalized":"","latitude":"53.34616194","longitude":"-6.292698889","operators":[{"name":"bac","routes":["25D"]}]},{"stopid":"1476","displaystopid":"1476","shortname":"Wolfe Tone Quay","shortnamelocalized":"Cé Wolfe Tone","fullname":"Wolfe Tone Quay","fullnamelocalized":"","latitude":"53.34700306","longitude":"-6.284663889","operators":[{"name":"bac","routes":["25D"]}]},{"stopid":"7453","displaystopid":"7453","shortname":"Arran Quay","shortnamelocalized":"Cé Árann","fullname":"Arran Quay","fullnamelocalized":"","latitude":"53.34633806","longitude":"-6.278378056","operators":[{"name":"bac","routes":["25D"]}]},{"stopid":"1478","displaystopid":"1478","shortname":"Inns Quay","shortnamelocalized":"Cé na nÓstaí","fullname":"Inns Quay","fullnamelocalized":"","latitude":"53.34564806","longitude":"-6.272935","operators":[{"name":"bac","routes":["25D"]}]},{"stopid":"1479","displaystopid":"1479","shortname":"Ormond Quay","shortnamelocalized":"Cé Urumhan","fullname":"Ormond Quay","fullnamelocalized":"","latitude":"53.34591306","longitude":"-6.269233056","operators":[{"name":"bac","routes":["25D"]}]},{"stopid":"315","displaystopid":"315","shortname":"Bachelors Walk","shortnamelocalized":"Siúlán Bhaitsiléir","fullname":"Bachelors Walk","fullnamelocalized":"","latitude":"53.34699389","longitude":"-6.261816111","operators":[{"name":"bac","routes":["25D"]}]},{"stopid":"406","displaystopid":"406","shortname":"Nassau Street","shortnamelocalized":"Sráid Nassau","fullname":"Nassau Street","fullnamelocalized":"","latitude":"53.34258111","longitude":"-6.256093056","operators":[{"name":"bac","routes":["25D"]}]},{"stopid":"4530","displaystopid":"4530","shortname":"Kildare Street","shortnamelocalized":"Sráid Chill Dara","fullname":"Kildare Street","fullnamelocalized":"","latitude":"53.340325","longitude":"-6.255453889","operators":[{"name":"bac","routes":["25D"]}]},{"stopid":"748","displaystopid":"748","shortname":"Merrion Row","shortnamelocalized":"Rae Mhuirfean","fullname":"Merrion Row","fullnamelocalized":"","latitude":"53.33851306","longitude":"-6.255003889","operators":[{"name":"bac","routes":["25D"]}]},{"stopid":"7390","displaystopid":"7390","shortname":"Merrion Square","shortnamelocalized":"Cearnóg Mhuirfean","fullname":"Merrion Square","fullnamelocalized":"","latitude":"53.33955611","longitude":"-6.251181944","operators":[{"name":"bac","routes":["25D"]}]}]},{"operator":"bac","origin":"Merrion Square","originlocalized":"Cearnóg Mhuirfean","destination":"Adamstown Station","destinationlocalized":"","lastupdated":"23\/07\/2018 09:46:20","stops":[{"stopid":"7391","displaystopid":"7391","shortname":"Merrion Square","shortnamelocalized":"Cearnóg Mhuirfean","fullname":"Merrion Square","fullnamelocalized":"","latitude":"53.33909694","longitude":"-6.250013056","operators":[{"name":"bac","routes":["25D"]}]},{"stopid":"493","displaystopid":"493","shortname":"Merrion Sq","shortnamelocalized":"Cearnóg Mhuirfean","fullname":"Merrion Sq","fullnamelocalized":"","latitude":"53.33988889","longitude":"-6.24736","operators":[{"name":"bac","routes":["25D"]}]},{"stopid":"494","displaystopid":"494","shortname":"Clare Street","shortnamelocalized":"Sráid an Chláraigh","fullname":"Clare Street","fullnamelocalized":"","latitude":"53.34141694","longitude":"-6.251671111","operators":[{"name":"bac","routes":["25D"]}]},{"stopid":"495","displaystopid":"495","shortname":"Westland Row","shortnamelocalized":"Rae an Iarthair","fullname":"Westland Row","fullnamelocalized":"","latitude":"53.34358611","longitude":"-6.249726111","operators":[{"name":"bac","routes":["25D"]}]},{"stopid":"400","displaystopid":"400","shortname":"Pearse Street","shortnamelocalized":"Sráid an Phiarsaigh","fullname":"Pearse Street","fullnamelocalized":"","latitude":"53.34482694","longitude":"-6.25323","operators":[{"name":"bac","routes":["25D"]}]},{"stopid":"7588","displaystopid":"7588","shortname":"Pearse Street","shortnamelocalized":"Sráid an Phiarsaigh","fullname":"Pearse Street","fullnamelocalized":"","latitude":"53.34502194","longitude":"-6.254255","operators":[{"name":"bac","routes":["25D"]}]},{"stopid":"7392","displaystopid":"7392","shortname":"Aston Quay","shortnamelocalized":"Cé Aston","fullname":"Aston Quay","fullnamelocalized":"","latitude":"53.34646194","longitude":"-6.260913889","operators":[{"name":"bac","routes":["25D"]}]},{"stopid":"312","displaystopid":"312","shortname":"Wellington Quay","shortnamelocalized":"Cé Wellington","fullname":"Wellington Quay","fullnamelocalized":"","latitude":"53.34547","longitude":"-6.266191944","operators":[{"name":"bac","routes":["25D"]}]},{"stopid":"1444","displaystopid":"1444","shortname":"Merchant's Quay","shortnamelocalized":"Cé na gCeannaithe","fullname":"Merchant's Quay","fullnamelocalized":"","latitude":"53.34511889","longitude":"-6.273738889","operators":[{"name":"bac","routes":["25D"]}]},{"stopid":"1445","displaystopid":"1445","shortname":"Ushers Quay","shortnamelocalized":"Cé Uiséir","fullname":"Ushers Quay","fullnamelocalized":"","latitude":"53.345675","longitude":"-6.278283889","operators":[{"name":"bac","routes":["25D"]}]},{"stopid":"4407","displaystopid":"4407","shortname":"Victoria Quay","shortnamelocalized":"Cé Victoria","fullname":"Victoria Quay","fullnamelocalized":"","latitude":"53.34660389","longitude":"-6.286196111","operators":[{"name":"bac","routes":["25D"]}]},{"stopid":"2637","displaystopid":"2637","shortname":"St. John's Road","shortnamelocalized":"Bóthar Eoin","fullname":"St. John's Road","fullnamelocalized":"","latitude":"53.34588611","longitude":"-6.293838056","operators":[{"name":"bac","routes":["25D"]}]},{"stopid":"2721","displaystopid":"2721","shortname":"Con Colbert Rd","shortnamelocalized":"Br Choinn Colbaird","fullname":"Con Colbert Rd","fullnamelocalized":"","latitude":"53.34327306","longitude":"-6.310488056","operators":[{"name":"bac","routes":["25D"]}]},{"stopid":"7012","displaystopid":"7012","shortname":"Con Colbert Rd","shortnamelocalized":"Br Choinn Colbaird","fullname":"Con Colbert Rd","fullnamelocalized":"","latitude":"53.34295611","longitude":"-6.315351944","operators":[{"name":"bac","routes":["25D"]}]},{"stopid":"2201","displaystopid":"2201","shortname":"Lucan Road","shortnamelocalized":"Bóthar Leamhcáin","fullname":"Lucan Road","fullnamelocalized":"","latitude":"53.353295","longitude":"-6.364661944","operators":[{"name":"bac","routes":["25D"]}]},{"stopid":"7239","displaystopid":"7239","shortname":"Lucan Road","shortnamelocalized":"Bóthar Leamhcáin N4","fullname":"Lucan Road","fullnamelocalized":"","latitude":"53.35405806","longitude":"-6.368911111","operators":[{"name":"bac","routes":["25D"]}]},{"stopid":"4401","displaystopid":"4401","shortname":"Lucan Road","shortnamelocalized":"Bóthar Leamhcáin","fullname":"Lucan Road","fullnamelocalized":"","latitude":"53.35477389","longitude":"-6.371766111","operators":[{"name":"bac","routes":["25D"]}]},{"stopid":"2213","displaystopid":"2213","shortname":"Lucan Road","shortnamelocalized":"Bóthar Leamhcáin","fullname":"Lucan Road","fullnamelocalized":"","latitude":"53.35571111","longitude":"-6.39203","operators":[{"name":"bac","routes":["25D"]}]},{"stopid":"2214","displaystopid":"2214","shortname":"Lucan Road","shortnamelocalized":"Bóthar Leamhcáin","fullname":"Lucan Road","fullnamelocalized":"","latitude":"53.35608889","longitude":"-6.399918056","operators":[{"name":"bac","routes":["25D"]}]},{"stopid":"2215","displaystopid":"2215","shortname":"Lucan Road","shortnamelocalized":"Bóthar Leamhcáin","fullname":"Lucan Road","fullnamelocalized":"","latitude":"53.35830306","longitude":"-6.409276944","operators":[{"name":"bac","routes":["25D"]}]},{"stopid":"2216","displaystopid":"2216","shortname":"Lucan Road","shortnamelocalized":"Bóthar Leamhcáin","fullname":"Lucan Road","fullnamelocalized":"","latitude":"53.35885694","longitude":"-6.415933056","operators":[{"name":"bac","routes":["25D"]}]},{"stopid":"4599","displaystopid":"4599","shortname":"Lucan Road","shortnamelocalized":"Bóthar Leamhcáin","fullname":"Lucan Road","fullnamelocalized":"","latitude":"53.35754694","longitude":"-6.42383","operators":[{"name":"bac","routes":["25D"]}]},{"stopid":"7184","displaystopid":"7184","shortname":"Lucan Bypass","shortnamelocalized":"Seachród Leamhcáin","fullname":"Lucan Bypass","fullnamelocalized":"","latitude":"53.352125","longitude":"-6.436151944","operators":[{"name":"bac","routes":["25D"]}]},{"stopid":"2225","displaystopid":"2225","shortname":"Adamstown Road","shortnamelocalized":"Bóthar Bhaile Adaim","fullname":"Adamstown Road","fullnamelocalized":"","latitude":"53.34947111","longitude":"-6.450081111","operators":[{"name":"bac","routes":["25D"]}]},{"stopid":"4620","displaystopid":"4620","shortname":"Newcastle Rd","shortnamelocalized":"Br an Chaisleáin Nu","fullname":"Newcastle Rd","fullnamelocalized":"","latitude":"53.347585","longitude":"-6.450886944","operators":[{"name":"bac","routes":["25D"]}]},{"stopid":"7563","displaystopid":"7563","shortname":"Newcastle Rd","shortnamelocalized":"Br an Chaisleáin Nu","fullname":"Newcastle Rd","fullnamelocalized":"","latitude":"53.34544389","longitude":"-6.451441111","operators":[{"name":"bac","routes":["25D"]}]},{"stopid":"7231","displaystopid":"7231","shortname":"Newcastle Rd","shortnamelocalized":"Br an Chaisleáin Nu","fullname":"Newcastle Rd","fullnamelocalized":"","latitude":"53.34031694","longitude":"-6.452591944","operators":[{"name":"bac","routes":["25D"]}]},{"stopid":"7128","displaystopid":"7128","shortname":"Adamstown","shortnamelocalized":"Baile Adaim","fullname":"Adamstown","fullnamelocalized":"","latitude":"53.33811611","longitude":"-6.457001944","operators":[{"name":"bac","routes":["25D"]}]},{"stopid":"7117","displaystopid":"7117","shortname":"Castlegate","shortnamelocalized":"Geata an Chaisleáin","fullname":"Castlegate","fullnamelocalized":"","latitude":"53.33764111","longitude":"-6.460893056","operators":[{"name":"bac","routes":["25D"]}]},{"stopid":"7118","displaystopid":"7118","shortname":"Adamstown Ave","shortnamelocalized":"Ascl Bhaile Adaim","fullname":"Adamstown Ave","fullnamelocalized":"","latitude":"53.33733889","longitude":"-6.464001944","operators":[{"name":"bac","routes":["25D"]}]},{"stopid":"6289","displaystopid":"6289","shortname":"Adamstown","shortnamelocalized":"Baile Adaim","fullname":"Railway Station","fullnamelocalized":"","latitude":"53.336167","longitude":"-6.467472","operators":[{"name":"bac","routes":["25D"]}]}]}]}