{"errorcode":"0","errormessage":"","numberofresults":2,"route":"27a","timestamp":"30\/07\/2018 09:45:56","results":[{"operator":"bac","origin":"Blunden Drive","originlocalized":"Céide Blunden","destination":"Eden Quay","destinationlocalized":"Cé Éidin","lastupdated":"23\/07\/2018 09:46:47","stops":[{"stopid":"1791","displaystopid":"1791","shortname":"Blunden Drive","shortnamelocalized":"Céide Blunden","fullname":"Blunden Drive","fullnamelocalized":"","latitude":"53.39664111","longitude":"-6.181946111","operators":[{"name":"bac","routes":["27A"]}]},{"stopid":"1792","displaystopid":"1792","shortname":"Millbrook Rd","shortnamelocalized":"Br Shruthán an Mhui","fullname":"Millbrook Rd","fullnamelocalized":"","latitude":"53.39352306","longitude":"-6.178531944","operators":[{"name":"bac","routes":["27A"]}]},{"stopid":"1793","displaystopid":"1793","shortname":"Millbrook Rd","shortnamelocalized":"Br Shruthán an Mhui","fullname":"Millbrook Rd","fullnamelocalized":"","latitude":"53.39167694","longitude":"-6.178685","operators":[{"name":"bac","routes":["27A"]}]},{"stopid":"962","displaystopid":"962","shortname":"Tonlegee Rd","shortnamelocalized":"Br Thóin le Gaoith","fullname":"Tonlegee Rd","fullnamelocalized":"","latitude":"53.39083194","longitude":"-6.182896111","operators":[{"name":"bac","routes":["27A"]}]},{"stopid":"635","displaystopid":"635","shortname":"Glenwood Rd","shortnamelocalized":"Br Ghleann na Coill","fullname":"Glenwood Rd","fullnamelocalized":"","latitude":"53.38901694","longitude":"-6.183906111","operators":[{"name":"bac","routes":["27A"]}]},{"stopid":"636","displaystopid":"636","shortname":"Glenwood Rd","shortnamelocalized":"Br Ghleann na Coill","fullname":"Glenwood Rd","fullnamelocalized":"","latitude":"53.38885194","longitude":"-6.186716111","operators":[{"name":"bac","routes":["27A"]}]},{"stopid":"637","displaystopid":"637","shortname":"Springdale Rd","shortnamelocalized":"Br Ghleanntán an To","fullname":"Springdale Rd","fullnamelocalized":"","latitude":"53.38778889","longitude":"-6.189863889","operators":[{"name":"bac","routes":["27A"]}]},{"stopid":"638","displaystopid":"638","shortname":"Springdale Rd","shortnamelocalized":"Br Ghleanntán an To","fullname":"Springdale Rd","fullnamelocalized":"","latitude":"53.38675806","longitude":"-6.188356111","operators":[{"name":"bac","routes":["27A"]}]},{"stopid":"639","displaystopid":"639","shortname":"Edenmore Park","shortnamelocalized":"Páirc Éadan Mór","fullname":"Edenmore Park","fullnamelocalized":"","latitude":"53.38633389","longitude":"-6.186723889","operators":[{"name":"bac","routes":["27A"]}]},{"stopid":"640","displaystopid":"640","shortname":"Edenmore Grove","shortnamelocalized":"Garrán Éadan Mór","fullname":"Edenmore Grove","fullnamelocalized":"","latitude":"53.3867","longitude":"-6.183433056","operators":[{"name":"bac","routes":["27A"]}]},{"stopid":"641","displaystopid":"641","shortname":"Edenmore Grove","shortnamelocalized":"Garrán Éadan Mór","fullname":"Edenmore Grove","fullnamelocalized":"","latitude":"53.385825","longitude":"-6.182368056","operators":[{"name":"bac","routes":["27A"]}]},{"stopid":"642","displaystopid":"642","shortname":"Edenmore Green","shortnamelocalized":"Faiche Éadan Mór","fullname":"Edenmore Green","fullnamelocalized":"","latitude":"53.38472611","longitude":"-6.183091111","operators":[{"name":"bac","routes":["27A"]}]},{"stopid":"643","displaystopid":"643","shortname":"Harmonstown Rd","shortnamelocalized":"Br Bhaile Hearman","fullname":"Harmonstown Rd","fullnamelocalized":"","latitude":"53.38356194","longitude":"-6.183863056","operators":[{"name":"bac","routes":["27A"]}]},{"stopid":"644","displaystopid":"644","shortname":"Harmonstown Rd","shortnamelocalized":"Br Bhaile Hearman","fullname":"Harmonstown Rd","fullnamelocalized":"","latitude":"53.38235694","longitude":"-6.185683889","operators":[{"name":"bac","routes":["27A"]}]},{"stopid":"645","displaystopid":"645","shortname":"Harmonstown Rd","shortnamelocalized":"Br Bhaile Hearman","fullname":"Harmonstown Rd","fullnamelocalized":"","latitude":"53.38017111","longitude":"-6.188613056","operators":[{"name":"bac","routes":["27A"]}]},{"stopid":"1796","displaystopid":"1796","shortname":"McAuley Park","shortnamelocalized":"Páirc Nic Amhlaí","fullname":"McAuley Park","fullnamelocalized":"","latitude":"53.38178806","longitude":"-6.19115","operators":[{"name":"bac","routes":["27A"]}]},{"stopid":"1797","displaystopid":"1797","shortname":"McAuley Drive","shortnamelocalized":"Céide Nic Amhlaí","fullname":"McAuley Drive","fullnamelocalized":"","latitude":"53.38312889","longitude":"-6.191708889","operators":[{"name":"bac","routes":["27A"]}]},{"stopid":"1798","displaystopid":"1798","shortname":"McAuley Road","shortnamelocalized":"Bóthar Nic Amhlaí","fullname":"McAuley Road","fullnamelocalized":"","latitude":"53.38437889","longitude":"-6.194528056","operators":[{"name":"bac","routes":["27A"]}]},{"stopid":"1799","displaystopid":"1799","shortname":"McAuley Road","shortnamelocalized":"Bóthar Nic Amhlaí","fullname":"McAuley Road","fullnamelocalized":"","latitude":"53.38305611","longitude":"-6.196648889","operators":[{"name":"bac","routes":["27A"]}]},{"stopid":"1800","displaystopid":"1800","shortname":"Gracefield Rd","shortnamelocalized":"Br Pháirc na nGrás","fullname":"Gracefield Rd","fullnamelocalized":"","latitude":"53.38230611","longitude":"-6.19923","operators":[{"name":"bac","routes":["27A"]}]},{"stopid":"1801","displaystopid":"1801","shortname":"Gracefield Rd","shortnamelocalized":"Br Pháirc na nGrás","fullname":"Gracefield Rd","fullnamelocalized":"","latitude":"53.38242694","longitude":"-6.202228056","operators":[{"name":"bac","routes":["27A"]}]},{"stopid":"1277","displaystopid":"1277","shortname":"Malahide Road","shortnamelocalized":"Bóthar Mhullach Íde","fullname":"Malahide Road","fullnamelocalized":"","latitude":"53.38263694","longitude":"-6.206181111","operators":[{"name":"bac","routes":["27A"]}]},{"stopid":"1219","displaystopid":"1219","shortname":"Malahide Road","shortnamelocalized":"Bóthar Mhullach Íde","fullname":"Malahide Road","fullnamelocalized":"","latitude":"53.38125889","longitude":"-6.208343056","operators":[{"name":"bac","routes":["27A"]}]},{"stopid":"1220","displaystopid":"1220","shortname":"Malahide Road","shortnamelocalized":"Bóthar Mhullach Íde","fullname":"Malahide Road","fullnamelocalized":"","latitude":"53.37876389","longitude":"-6.212236944","operators":[{"name":"bac","routes":["27A"]}]},{"stopid":"1221","displaystopid":"1221","shortname":"Malahide Road","shortnamelocalized":"Bóthar Mhullach Íde","fullname":"Malahide Road","fullnamelocalized":"","latitude":"53.37684806","longitude":"-6.216126944","operators":[{"name":"bac","routes":["27A"]}]},{"stopid":"664","displaystopid":"664","shortname":"Malahide Road","shortnamelocalized":"Bóthar Mhullach Íde","fullname":"Malahide Road","fullnamelocalized":"","latitude":"53.37466","longitude":"-6.219551111","operators":[{"name":"bac","routes":["27A"]}]},{"stopid":"665","displaystopid":"665","shortname":"Malahide Road","shortnamelocalized":"Bóthar Mhullach Íde","fullname":"Malahide Road","fullnamelocalized":"","latitude":"53.37247889","longitude":"-6.222061111","operators":[{"name":"bac","routes":["27A"]}]},{"stopid":"666","displaystopid":"666","shortname":"Malahide Road","shortnamelocalized":"Bóthar Mhullach Íde","fullname":"Malahide Road","fullnamelocalized":"","latitude":"53.37016694","longitude":"-6.22429","operators":[{"name":"bac","routes":["27A"]}]},{"stopid":"667","displaystopid":"667","shortname":"Malahide Road","shortnamelocalized":"Bóthar Mhullach Íde","fullname":"Malahide Road","fullnamelocalized":"","latitude":"53.36797389","longitude":"-6.226978056","operators":[{"name":"bac","routes":["27A"]}]},{"stopid":"668","displaystopid":"668","shortname":"Malahide Road","shortnamelocalized":"Bóthar Mhullach Íde","fullname":"Malahide Road","fullnamelocalized":"","latitude":"53.36457611","longitude":"-6.229335","operators":[{"name":"bac","routes":["27A"]}]},{"stopid":"614","displaystopid":"614","shortname":"Fairview","shortnamelocalized":"Fionnradharc","fullname":"Fairview Footbridge","fullnamelocalized":"","latitude":"53.363606","longitude":"-6.233541","operators":[{"name":"bac","routes":["27A"]}]},{"stopid":"615","displaystopid":"615","shortname":"Annesley Brg Rd.","shortnamelocalized":"Br Dhr Annesley","fullname":"Fairview Park","fullnamelocalized":"","latitude":"53.361898","longitude":"-6.237338","operators":[{"name":"bac","routes":["27A"]}]},{"stopid":"616","displaystopid":"616","shortname":"North Strand Rd","shortnamelocalized":"Br na Trá Thuaidh","fullname":"Annesley Bridge","fullnamelocalized":"","latitude":"53.359832","longitude":"-6.239618","operators":[{"name":"bac","routes":["27A"]}]},{"stopid":"617","displaystopid":"617","shortname":"North Strand Rd","shortnamelocalized":"Br na Trá Thuaidh","fullname":"Strandville Avenue","fullnamelocalized":"","latitude":"53.3579","longitude":"-6.2421","operators":[{"name":"bac","routes":["27A"]}]},{"stopid":"618","displaystopid":"618","shortname":"North Strand Rd","shortnamelocalized":"Br na Trá Thuaidh","fullname":"Newcomen Bridge","fullnamelocalized":"","latitude":"53.35608","longitude":"-6.24478","operators":[{"name":"bac","routes":["27A"]}]},{"stopid":"619","displaystopid":"619","shortname":"Amiens Street","shortnamelocalized":"Sráid Amiens","fullname":"Sheriff Street","fullnamelocalized":"","latitude":"53.354003","longitude":"-6.247281","operators":[{"name":"bac","routes":["27A"]}]},{"stopid":"675","displaystopid":"675","shortname":"Amiens Street","shortnamelocalized":"Sráid Amiens","fullname":"Amiens Street","fullnamelocalized":"","latitude":"53.352855","longitude":"-6.248531944","operators":[{"name":"bac","routes":["27A"]}]},{"stopid":"620","displaystopid":"620","shortname":"Talbot Street","shortnamelocalized":"Sráid Thalbóid","fullname":"Talbot Place","fullnamelocalized":"","latitude":"53.350965","longitude":"-6.252734","operators":[{"name":"bac","routes":["27A"]}]},{"stopid":"7568","displaystopid":"7568","shortname":"Eden Quay","shortnamelocalized":"Cé Éidin","fullname":"Eden Quay","fullnamelocalized":"","latitude":"53.34825194","longitude":"-6.255883889","operators":[{"name":"bac","routes":["27A"]}]}]},{"operator":"bac","origin":"Eden Quay","originlocalized":"Cé Éidin","destination":"Blunden Drive","destinationlocalized":"Céide Blunden","lastupdated":"23\/07\/2018 09:46:42","stops":[{"stopid":"300","displaystopid":"300","shortname":"Eden Quay","shortnamelocalized":"Cé Éidin","fullname":"Eden Quay","fullnamelocalized":"","latitude":"53.34826889","longitude":"-6.255763056","operators":[{"name":"bac","routes":["27A"]}]},{"stopid":"496","displaystopid":"496","shortname":"Beresford Place","shortnamelocalized":"Plás Beresford","fullname":"Beresford Place","fullnamelocalized":"","latitude":"53.34945694","longitude":"-6.252165","operators":[{"name":"bac","routes":["27A"]}]},{"stopid":"497","displaystopid":"497","shortname":"Amiens Street","shortnamelocalized":"Sráid Amiens","fullname":"Amiens Street","fullnamelocalized":"","latitude":"53.35050306","longitude":"-6.250701111","operators":[{"name":"bac","routes":["27A"]}]},{"stopid":"515","displaystopid":"515","shortname":"Amiens Street","shortnamelocalized":"Sráid Amiens","fullname":"Amiens Street","fullnamelocalized":"","latitude":"53.35350389","longitude":"-6.248088889","operators":[{"name":"bac","routes":["27A"]}]},{"stopid":"516","displaystopid":"516","shortname":"North Strand Rd","shortnamelocalized":"Br na Trá Thuaidh","fullname":"North Strand Rd","fullnamelocalized":"","latitude":"53.35568","longitude":"-6.245661944","operators":[{"name":"bac","routes":["27A"]}]},{"stopid":"4384","displaystopid":"4384","shortname":"North Strand Rd","shortnamelocalized":"Br na Trá Thuaidh","fullname":"North Strand Rd","fullnamelocalized":"","latitude":"53.35767111","longitude":"-6.242686111","operators":[{"name":"bac","routes":["27A"]}]},{"stopid":"519","displaystopid":"519","shortname":"North Strand Rd","shortnamelocalized":"Br na Trá Thuaidh","fullname":"North Strand Rd","fullnamelocalized":"","latitude":"53.36030194","longitude":"-6.239553056","operators":[{"name":"bac","routes":["27A"]}]},{"stopid":"521","displaystopid":"521","shortname":"Annesley Bridge","shortnamelocalized":"Droichead Annesley","fullname":"Annesley Bridge","fullnamelocalized":"","latitude":"53.361625","longitude":"-6.237988889","operators":[{"name":"bac","routes":["27A"]}]},{"stopid":"522","displaystopid":"522","shortname":"Marino Mart","shortnamelocalized":"Marglann Marino","fullname":"Marino Mart","fullnamelocalized":"","latitude":"53.36327194","longitude":"-6.235341111","operators":[{"name":"bac","routes":["27A"]}]},{"stopid":"523","displaystopid":"523","shortname":"Marino Mart","shortnamelocalized":"Marglann Marino","fullname":"Marino Mart","fullnamelocalized":"","latitude":"53.36428111","longitude":"-6.231608056","operators":[{"name":"bac","routes":["27A"]}]},{"stopid":"669","displaystopid":"669","shortname":"Malahide Road","shortnamelocalized":"Bóthar Mhullach Íde","fullname":"Malahide Road","fullnamelocalized":"","latitude":"53.36631111","longitude":"-6.228656944","operators":[{"name":"bac","routes":["27A"]}]},{"stopid":"670","displaystopid":"670","shortname":"Malahide Road","shortnamelocalized":"Bóthar Mhullach Íde","fullname":"Malahide Road","fullnamelocalized":"","latitude":"53.36895","longitude":"-6.226008889","operators":[{"name":"bac","routes":["27A"]}]},{"stopid":"671","displaystopid":"671","shortname":"Malahide Road","shortnamelocalized":"Bóthar Mhullach Íde","fullname":"Malahide Road","fullnamelocalized":"","latitude":"53.37071889","longitude":"-6.224138056","operators":[{"name":"bac","routes":["27A"]}]},{"stopid":"672","displaystopid":"672","shortname":"Malahide Road","shortnamelocalized":"Bóthar Mhullach Íde","fullname":"Malahide Road","fullnamelocalized":"","latitude":"53.373465","longitude":"-6.221061111","operators":[{"name":"bac","routes":["27A"]}]},{"stopid":"4382","displaystopid":"4382","shortname":"Malahide Road","shortnamelocalized":"Bóthar Mhullach Íde","fullname":"Malahide Road","fullnamelocalized":"","latitude":"53.3749","longitude":"-6.2196","operators":[{"name":"bac","routes":["27A"]}]},{"stopid":"1196","displaystopid":"1196","shortname":"Malahide Road","shortnamelocalized":"Bóthar Mhullach Íde","fullname":"Malahide Road","fullnamelocalized":"","latitude":"53.37802111","longitude":"-6.214528889","operators":[{"name":"bac","routes":["27A"]}]},{"stopid":"1197","displaystopid":"1197","shortname":"Malahide Road","shortnamelocalized":"Bóthar Mhullach Íde","fullname":"Malahide Road","fullnamelocalized":"","latitude":"53.37923","longitude":"-6.211743056","operators":[{"name":"bac","routes":["27A"]}]},{"stopid":"1198","displaystopid":"1198","shortname":"Malahide Road","shortnamelocalized":"Bóthar Mhullach Íde","fullname":"Malahide Road","fullnamelocalized":"","latitude":"53.38250889","longitude":"-6.206905","operators":[{"name":"bac","routes":["27A"]}]},{"stopid":"4782","displaystopid":"4782","shortname":"Gracefield Rd","shortnamelocalized":"Br Pháirc na nGrás","fullname":"Gracefield Rd","fullnamelocalized":"","latitude":"53.38250694","longitude":"-6.202558056","operators":[{"name":"bac","routes":["27A"]}]},{"stopid":"1782","displaystopid":"1782","shortname":"Gracefield Road","shortnamelocalized":"Br Pháirc na nGrás","fullname":"Gracefield Road","fullnamelocalized":"","latitude":"53.38238806","longitude":"-6.198165","operators":[{"name":"bac","routes":["27A"]}]},{"stopid":"1783","displaystopid":"1783","shortname":"McAuley Road","shortnamelocalized":"Bóthar Nic Amhlaí","fullname":"McAuley Road","fullnamelocalized":"","latitude":"53.38379806","longitude":"-6.195953056","operators":[{"name":"bac","routes":["27A"]}]},{"stopid":"1784","displaystopid":"1784","shortname":"McAuley Road","shortnamelocalized":"Bóthar Nic Amhlaí","fullname":"McAuley Road","fullnamelocalized":"","latitude":"53.38462194","longitude":"-6.19297","operators":[{"name":"bac","routes":["27A"]}]},{"stopid":"1785","displaystopid":"1785","shortname":"McAuley Park","shortnamelocalized":"Páirc Nic Amhlaí","fullname":"McAuley Park","fullnamelocalized":"","latitude":"53.38259389","longitude":"-6.1916","operators":[{"name":"bac","routes":["27A"]}]},{"stopid":"1786","displaystopid":"1786","shortname":"Ribh Road","shortnamelocalized":"Bóthar Loch Rí","fullname":"Ribh Road","fullnamelocalized":"","latitude":"53.38199306","longitude":"-6.192228889","operators":[{"name":"bac","routes":["27A"]}]},{"stopid":"624","displaystopid":"624","shortname":"Harmonstown Rd","shortnamelocalized":"Br Bhaile Hearman","fullname":"Ribh Road","fullnamelocalized":"","latitude":"53.380183","longitude":"-6.189104","operators":[{"name":"bac","routes":["27A"]}]},{"stopid":"625","displaystopid":"625","shortname":"Harmonstown Rd","shortnamelocalized":"Br Bhaile Hearman","fullname":"Lein Gardens","fullnamelocalized":"","latitude":"53.381788","longitude":"-6.186306","operators":[{"name":"bac","routes":["27A"]}]},{"stopid":"626","displaystopid":"626","shortname":"Edenmore Green","shortnamelocalized":"Faiche Éadan Mór","fullname":"Springdale Road","fullnamelocalized":"","latitude":"53.384488","longitude":"-6.18403","operators":[{"name":"bac","routes":["27A"]}]},{"stopid":"627","displaystopid":"627","shortname":"Edenmore Grove","shortnamelocalized":"Garrán Éadan Mór","fullname":"Edenmore Green","fullnamelocalized":"","latitude":"53.385409","longitude":"-6.181983","operators":[{"name":"bac","routes":["27A"]}]},{"stopid":"628","displaystopid":"628","shortname":"Edenmore Grove","shortnamelocalized":"Garrán Éadan Mór","fullname":"Edenmore Park","fullnamelocalized":"","latitude":"53.386948","longitude":"-6.183883","operators":[{"name":"bac","routes":["27A"]}]},{"stopid":"629","displaystopid":"629","shortname":"Edenmore Park","shortnamelocalized":"Páirc Éadan Mór","fullname":"Edenmore Drive","fullnamelocalized":"","latitude":"53.386523","longitude":"-6.185941","operators":[{"name":"bac","routes":["27A"]}]},{"stopid":"630","displaystopid":"630","shortname":"Springdale Rd","shortnamelocalized":"Br Ghleanntán an To","fullname":"Edenmore Avenue","fullnamelocalized":"","latitude":"53.387243","longitude":"-6.189302","operators":[{"name":"bac","routes":["27A"]}]},{"stopid":"4466","displaystopid":"4466","shortname":"Glenwood Rd","shortnamelocalized":"Br Ghleann na Coill","fullname":"Glenwood Rd","fullnamelocalized":"","latitude":"53.38841694","longitude":"-6.189766111","operators":[{"name":"bac","routes":["27A"]}]},{"stopid":"633","displaystopid":"633","shortname":"Tonlegee Dr","shortnamelocalized":"Cde Thóin le Gaoith","fullname":"Tonlegee Dr","fullnamelocalized":"","latitude":"53.38964111","longitude":"-6.189335","operators":[{"name":"bac","routes":["27A"]}]},{"stopid":"634","displaystopid":"634","shortname":"Tonlegee Ave","shortnamelocalized":"Asc Thóin le Gaoith","fullname":"Tonlegee Ave","fullnamelocalized":"","latitude":"53.39026889","longitude":"-6.184126944","operators":[{"name":"bac","routes":["27A"]}]},{"stopid":"1005","displaystopid":"1005","shortname":"Tonlegee Rd","shortnamelocalized":"Br Thóin le Gaoith","fullname":"Limewood Park","fullnamelocalized":"","latitude":"53.391","longitude":"-6.181927","operators":[{"name":"bac","routes":["27A"]}]},{"stopid":"1788","displaystopid":"1788","shortname":"Millbrook Rd","shortnamelocalized":"Br Shruthán an Mhui","fullname":"Millbrook Rd","fullnamelocalized":"","latitude":"53.39161389","longitude":"-6.178791111","operators":[{"name":"bac","routes":["27A"]}]},{"stopid":"1789","displaystopid":"1789","shortname":"Millbrook Rd","shortnamelocalized":"Br Shruthán an Mhui","fullname":"Millbrook Rd","fullnamelocalized":"","latitude":"53.39426194","longitude":"-6.178578889","operators":[{"name":"bac","routes":["27A"]}]},{"stopid":"7199","displaystopid":"7199","shortname":"Blunden Drive","shortnamelocalized":"Céide Blunden","fullname":"Blunden Drive","fullnamelocalized":"","latitude":"53.39664111","longitude":"-6.182783056","operators":[{"name":"bac","routes":["27A"]}]}]}]}