{"errorcode":"0","errormessage":"","numberofresults":2,"route":"69x","timestamp":"30\/07\/2018 10:05:17","results":[{"operator":"bac","origin":"Hawkins St","originlocalized":"Sráid Hawkins","destination":"Rathcoole","destinationlocalized":"Ráth Cúil","lastupdated":"27\/06\/2016 09:01:42","stops":[{"stopid":"337","displaystopid":"337","shortname":"Fleet Street","shortnamelocalized":"Sráid na Toinne","fullname":"Fleet Street","fullnamelocalized":"","latitude":"53.34593889","longitude":"-6.257805","operators":[{"name":"bac","routes":["69X"]}]},{"stopid":"339","displaystopid":"339","shortname":"Burgh Quay","shortnamelocalized":"Cé an Bhúrcaigh","fullname":"Burgh Quay","fullnamelocalized":"","latitude":"53.34731306","longitude":"-6.256928056","operators":[{"name":"bac","routes":["69X"]}]},{"stopid":"3435","displaystopid":"3435","shortname":"Mill Road","shortnamelocalized":"Bóthar an Mhuilinn","fullname":"Mill Road","fullnamelocalized":"","latitude":"53.28165806","longitude":"-6.448058056","operators":[{"name":"bac","routes":["69X"]}]},{"stopid":"4495","displaystopid":"4495","shortname":"Hawkins Street","shortnamelocalized":"Sráid Hawkins","fullname":"Hawkins Street","fullnamelocalized":"","latitude":"53.34618306","longitude":"-6.256966111","operators":[{"name":"bac","routes":["69X"]}]},{"stopid":"4720","displaystopid":"4720","shortname":"Aston Quay","shortnamelocalized":"Cé Aston","fullname":"Aston Quay","fullnamelocalized":"","latitude":"53.346615","longitude":"-6.260275","operators":[{"name":"bac","routes":["69X"]}]},{"stopid":"1443","displaystopid":"1443","shortname":"Essex Quay","shortnamelocalized":"Cé Essex","fullname":"Essex Quay","fullnamelocalized":"","latitude":"53.345125","longitude":"-6.269528056","operators":[{"name":"bac","routes":["69X"]}]},{"stopid":"1444","displaystopid":"1444","shortname":"Merchant's Quay","shortnamelocalized":"Cé na gCeannaithe","fullname":"Merchant's Quay","fullnamelocalized":"","latitude":"53.34511889","longitude":"-6.273738889","operators":[{"name":"bac","routes":["69X"]}]},{"stopid":"1445","displaystopid":"1445","shortname":"Ushers Quay","shortnamelocalized":"Cé Uiséir","fullname":"Ushers Quay","fullnamelocalized":"","latitude":"53.345675","longitude":"-6.278283889","operators":[{"name":"bac","routes":["69X"]}]},{"stopid":"1447","displaystopid":"1447","shortname":"Victoria Quay","shortnamelocalized":"Cé Victoria","fullname":"Victoria Quay","fullnamelocalized":"","latitude":"53.34662806","longitude":"-6.288166944","operators":[{"name":"bac","routes":["69X"]}]},{"stopid":"2637","displaystopid":"2637","shortname":"St. John's Road","shortnamelocalized":"Bóthar Eoin","fullname":"St. John's Road","fullnamelocalized":"","latitude":"53.34588611","longitude":"-6.293838056","operators":[{"name":"bac","routes":["69X"]}]},{"stopid":"1956","displaystopid":"1956","shortname":"Naas Road","shortnamelocalized":"Bóthar an Náis","fullname":"Naas Road","fullnamelocalized":"","latitude":"53.32635611","longitude":"-6.343845","operators":[{"name":"bac","routes":["69X"]}]},{"stopid":"2109","displaystopid":"2109","shortname":"Naas Road","shortnamelocalized":"Bóthar an Náis","fullname":"Naas Road","fullnamelocalized":"","latitude":"53.31500389","longitude":"-6.381633889","operators":[{"name":"bac","routes":["69X"]}]},{"stopid":"3427","displaystopid":"3427","shortname":"Naas Road","shortnamelocalized":"Bóthar an Náis","fullname":"Naas Road","fullnamelocalized":"","latitude":"53.31251694","longitude":"-6.391858056","operators":[{"name":"bac","routes":["69X"]}]},{"stopid":"3428","displaystopid":"3428","shortname":"Naas Road","shortnamelocalized":"Bóthar an Náis","fullname":"Naas Road","fullnamelocalized":"","latitude":"53.31126111","longitude":"-6.398728889","operators":[{"name":"bac","routes":["69X"]}]},{"stopid":"3429","displaystopid":"3429","shortname":"Naas Road","shortnamelocalized":"Bóthar an Náis","fullname":"Naas Road","fullnamelocalized":"","latitude":"53.30665","longitude":"-6.406741944","operators":[{"name":"bac","routes":["69X"]}]},{"stopid":"3432","displaystopid":"3432","shortname":"Bianconi Avenue","shortnamelocalized":"Ascaill Bianconi","fullname":"Bianconi Avenue","fullnamelocalized":"","latitude":"53.29136","longitude":"-6.42819","operators":[{"name":"bac","routes":["69X"]}]},{"stopid":"3434","displaystopid":"3434","shortname":"Saggart Village","shortnamelocalized":"SrBhl Theach Sagard","fullname":"Saggart Village","fullnamelocalized":"","latitude":"53.28031111","longitude":"-6.44468","operators":[{"name":"bac","routes":["69X"]}]},{"stopid":"3453","displaystopid":"3453","shortname":"Mill Road","shortnamelocalized":"Bóthar an Mhuilinn","fullname":"Mill Road","fullnamelocalized":"","latitude":"53.28295111","longitude":"-6.4528","operators":[{"name":"bac","routes":["69X"]}]},{"stopid":"3437","displaystopid":"3437","shortname":"Fitzmaurice Road","shortnamelocalized":"Bóthar Mhic Mhuiris","fullname":"Fitzmaurice Road","fullnamelocalized":"","latitude":"53.28358194","longitude":"-6.460508056","operators":[{"name":"bac","routes":["69X"]}]},{"stopid":"3440","displaystopid":"3440","shortname":"Rathcoole","shortnamelocalized":"Ráth Cúil","fullname":"Rathcoole","fullnamelocalized":"","latitude":"53.28181611","longitude":"-6.465496944","operators":[{"name":"bac","routes":["69X"]}]},{"stopid":"3441","displaystopid":"3441","shortname":"Rathcoole","shortnamelocalized":"Ráth Cúil","fullname":"Rathcoole","fullnamelocalized":"","latitude":"53.28117889","longitude":"-6.472836111","operators":[{"name":"bac","routes":["69X"]}]},{"stopid":"4560","displaystopid":"4560","shortname":"Johnstown Rd","shortnamelocalized":"Br Bhaile Sheáin","fullname":"Johnstown Rd","fullnamelocalized":"","latitude":"53.27948806","longitude":"-6.477508056","operators":[{"name":"bac","routes":["69X"]}]},{"stopid":"5126","displaystopid":"5126","shortname":"Rathlawns","shortnamelocalized":"Plásóga an Rátha","fullname":"Rathlawns","fullnamelocalized":"","latitude":"53.27733389","longitude":"-6.480013889","operators":[{"name":"bac","routes":["69X"]}]}]},{"operator":"bac","origin":"Rathcoole","originlocalized":"Ráth Cúil","destination":"Hawkins St","destinationlocalized":"Sráid Hawkins","lastupdated":"27\/06\/2016 09:01:43","stops":[{"stopid":"5192","displaystopid":"5192","shortname":"Fleet Street","shortnamelocalized":"Sráid na Toinne","fullname":"Fleet Street","fullnamelocalized":"","latitude":"53.34593889","longitude":"-6.257805","operators":[{"name":"bac","routes":["69X"]}]},{"stopid":"339","displaystopid":"339","shortname":"Burgh Quay","shortnamelocalized":"Cé an Bhúrcaigh","fullname":"Burgh Quay","fullnamelocalized":"","latitude":"53.34731306","longitude":"-6.256928056","operators":[{"name":"bac","routes":["69X"]}]},{"stopid":"4564","displaystopid":"4564","shortname":"Rathlawns ","shortnamelocalized":"Plásóga an Rátha","fullname":"Rathlawns","fullnamelocalized":"","latitude":"53.27802111","longitude":"-6.479206944","operators":[{"name":"bac","routes":["69X"]}]},{"stopid":"3444","displaystopid":"3444","shortname":"Rathcoole","shortnamelocalized":"Ráth Cúil","fullname":"Rathcoole","fullnamelocalized":"","latitude":"53.28118194","longitude":"-6.474768056","operators":[{"name":"bac","routes":["69X"]}]},{"stopid":"3447","displaystopid":"3447","shortname":"Rathcoole","shortnamelocalized":"Ráth Cúil","fullname":"Rathcoole","fullnamelocalized":"","latitude":"53.28191194","longitude":"-6.465246111","operators":[{"name":"bac","routes":["69X"]}]},{"stopid":"3454","displaystopid":"3454","shortname":"Mill Road","shortnamelocalized":"Bóthar an Mhuilinn","fullname":"Mill Road","fullnamelocalized":"","latitude":"53.281645","longitude":"-6.447668889","operators":[{"name":"bac","routes":["69X"]}]},{"stopid":"3455","displaystopid":"3455","shortname":"Saggart Village","shortnamelocalized":"Sráidbhaile Theach ","fullname":"Saggart Village","fullnamelocalized":"","latitude":"53.28034194","longitude":"-6.444803889","operators":[{"name":"bac","routes":["69X"]}]},{"stopid":"5022","displaystopid":"5022","shortname":"Kingswood Ave","shortnamelocalized":"Ascl Choill an Rí","fullname":"Kingswood Ave","fullnamelocalized":"","latitude":"53.29337889","longitude":"-6.422841111","operators":[{"name":"bac","routes":["69X"]}]},{"stopid":"3461","displaystopid":"3461","shortname":"Boot Road","shortnamelocalized":"Bóthar an Bhútaigh","fullname":"Boot Road","fullnamelocalized":"","latitude":"53.30963889","longitude":"-6.404421111","operators":[{"name":"bac","routes":["69X"]}]},{"stopid":"4537","displaystopid":"4537","shortname":"Hazelwood Est","shortnamelocalized":"Eastát na Collchoil","fullname":"Hazelwood Est","fullnamelocalized":"","latitude":"53.31087","longitude":"-6.401956944","operators":[{"name":"bac","routes":["69X"]}]},{"stopid":"2176","displaystopid":"2176","shortname":"Naas Road","shortnamelocalized":"Bóthar an Náis","fullname":"Naas Road","fullnamelocalized":"","latitude":"53.31385889","longitude":"-6.387646111","operators":[{"name":"bac","routes":["69X"]}]},{"stopid":"1982","displaystopid":"1982","shortname":"Naas Road","shortnamelocalized":"Bóthar an Náis","fullname":"Naas Road","fullnamelocalized":"","latitude":"53.32718111","longitude":"-6.342026111","operators":[{"name":"bac","routes":["69X"]}]},{"stopid":"7435","displaystopid":"7435","shortname":"Con Colbert Rd","shortnamelocalized":"Br Choinn Colbaird","fullname":"Con Colbert Rd","fullnamelocalized":"","latitude":"53.34318111","longitude":"-6.315365","operators":[{"name":"bac","routes":["69X"]}]},{"stopid":"4413","displaystopid":"4413","shortname":"St. John's Road","shortnamelocalized":"Bóthar Eoin","fullname":"St. John's Road","fullnamelocalized":"","latitude":"53.34616194","longitude":"-6.292698889","operators":[{"name":"bac","routes":["69X"]}]},{"stopid":"1480","displaystopid":"1480","shortname":"Ormond Quay","shortnamelocalized":"Cé Urumhan","fullname":"Ormond Quay","fullnamelocalized":"","latitude":"53.34569389","longitude":"-6.270616944","operators":[{"name":"bac","routes":["69X"]}]},{"stopid":"1358","displaystopid":"1358","shortname":"Dame Street","shortnamelocalized":"Sráid an Dáma","fullname":"Dame Street","fullnamelocalized":"","latitude":"53.34430611","longitude":"-6.262861111","operators":[{"name":"bac","routes":["69X"]}]},{"stopid":"7665","displaystopid":"7665","shortname":"Poolbeg Street","shortnamelocalized":"","fullname":"Poolbeg Street","fullnamelocalized":"","latitude":"53.34682306","longitude":"-6.256773889","operators":[{"name":"bac","routes":["69X"]}]}]}]}