{"errorcode":"0","errormessage":"","numberofresults":2,"route":"757","timestamp":"30\/07\/2018 10:20:26","results":[{"operator":"bac","origin":"Camden-Charlotte Way","originlocalized":"Camden-Charlotte Way","destination":"Dublin Airport","destinationlocalized":"Aerfort","lastupdated":"23\/07\/2018 09:56:48","stops":[{"stopid":"1074","displaystopid":"1074","shortname":"Charlotte Way","shortnamelocalized":"Slí Charlotte","fullname":"Camden Court Hotel","fullnamelocalized":"","latitude":"53.33378","longitude":"-6.263919","operators":[{"name":"bac","routes":["757"]}]},{"stopid":"6074","displaystopid":"6074","shortname":"Earlsfort Tce","shortnamelocalized":"Ardn Phort an Iarla","fullname":"Leeson Street","fullnamelocalized":"","latitude":"53.335893","longitude":"-6.25752","operators":[{"name":"bac","routes":["757"]}]},{"stopid":"748","displaystopid":"748","shortname":"Merrion Row","shortnamelocalized":"Rae Mhuirfean","fullname":"Merrion Row","fullnamelocalized":"","latitude":"53.33851306","longitude":"-6.255003889","operators":[{"name":"bac","routes":["757"]}]},{"stopid":"2905","displaystopid":"2905","shortname":"Merrion Sq West","shortnamelocalized":"Cg Mhuirfean Thiar","fullname":"Merrion Sq West","fullnamelocalized":"","latitude":"53.34006694","longitude":"-6.25192","operators":[{"name":"bac","routes":["757"]}]},{"stopid":"494","displaystopid":"494","shortname":"Clare Street","shortnamelocalized":"Sráid an Chláraigh","fullname":"Clare Street","fullnamelocalized":"","latitude":"53.34141694","longitude":"-6.251671111","operators":[{"name":"bac","routes":["757"]}]},{"stopid":"495","displaystopid":"495","shortname":"Westland Row","shortnamelocalized":"Rae an Iarthair","fullname":"Westland Row","fullnamelocalized":"","latitude":"53.34358611","longitude":"-6.249726111","operators":[{"name":"bac","routes":["757"]}]},{"stopid":"7588","displaystopid":"7588","shortname":"Pearse Street","shortnamelocalized":"Sráid an Phiarsaigh","fullname":"Pearse Street","fullnamelocalized":"","latitude":"53.34502194","longitude":"-6.254255","operators":[{"name":"bac","routes":["757"]}]},{"stopid":"4717","displaystopid":"4717","shortname":"Amiens Street","shortnamelocalized":"Sráid Amiens","fullname":"Amiens Street","fullnamelocalized":"","latitude":"53.34975806","longitude":"-6.252436944","operators":[{"name":"bac","routes":["757"]}]},{"stopid":"2499","displaystopid":"2499","shortname":"Custom House Quay","shortnamelocalized":"Cé Theach an Chusta","fullname":"Custom House Quay","fullnamelocalized":"","latitude":"53.34806389","longitude":"-6.247145","operators":[{"name":"bac","routes":["757"]}]},{"stopid":"7216","displaystopid":"7216","shortname":"North Wall Quay","shortnamelocalized":"Cé an Phoirt Tdh","fullname":"North Wall Quay","fullnamelocalized":"","latitude":"53.34779","longitude":"-6.242868889","operators":[{"name":"bac","routes":["757"]}]},{"stopid":"2501","displaystopid":"2501","shortname":"North Wall Quay","shortnamelocalized":"Cé an Phoirt Tdh","fullname":"North Wall Quay","fullnamelocalized":"","latitude":"53.34737306","longitude":"-6.236341944","operators":[{"name":"bac","routes":["757"]}]},{"stopid":"7623","displaystopid":"7623","shortname":"East Wall Rd","shortnamelocalized":"Br an Phoirt Thoir","fullname":"East Wall Rd","fullnamelocalized":"","latitude":"53.346855","longitude":"-6.228846111","operators":[{"name":"bac","routes":["757"]}]},{"stopid":"7401","displaystopid":"7401","shortname":"Dublin Airport","shortnamelocalized":"Aerfort Átha Cliath","fullname":"Dublin Airport","fullnamelocalized":"","latitude":"53.42678389","longitude":"-6.240496944","operators":[{"name":"bac","routes":["757"]}]},{"stopid":"3665","displaystopid":"3665","shortname":"Dublin Airport","shortnamelocalized":"Aerfort Átha Cliath","fullname":"Dublin Airport","fullnamelocalized":"","latitude":"53.42811611","longitude":"-6.244116111","operators":[{"name":"bac","routes":["757","757"]}]}]},{"operator":"bac","origin":"Dublin Airport","originlocalized":"Aerfort","destination":"Camden-Charlotte Way","destinationlocalized":"Camden-Charlotte Way","lastupdated":"23\/07\/2018 09:56:54","stops":[{"stopid":"7400","displaystopid":"7400","shortname":"Dublin Airport","shortnamelocalized":"Aerfort Átha Cliath","fullname":"Dublin Airport","fullnamelocalized":"","latitude":"53.42674889","longitude":"-6.239146111","operators":[{"name":"bac","routes":["757"]}]},{"stopid":"3669","displaystopid":"3669","shortname":"Dublin Airport","shortnamelocalized":"Aerfort Átha Cliath","fullname":"Dublin Airport","fullnamelocalized":"","latitude":"53.42866694","longitude":"-6.234961111","operators":[{"name":"bac","routes":["757"]}]},{"stopid":"7611","displaystopid":"7611","shortname":"North Wall Quay","shortnamelocalized":"Ionad Comhdhála","fullname":"North Wall Quay","fullnamelocalized":"","latitude":"53.347215","longitude":"-6.236435","operators":[{"name":"bac","routes":["757"]}]},{"stopid":"7398","displaystopid":"7398","shortname":"North Wall Quay","shortnamelocalized":"Cé an Phoirt Tdh","fullname":"North Wall Quay","fullnamelocalized":"","latitude":"53.34749889","longitude":"-6.239833056","operators":[{"name":"bac","routes":["757"]}]},{"stopid":"7397","displaystopid":"7397","shortname":"North Wall Quay","shortnamelocalized":"Cé an Phoirt Tdh","fullname":"North Wall Quay","fullnamelocalized":"","latitude":"53.34757194","longitude":"-6.243238056","operators":[{"name":"bac","routes":["757"]}]},{"stopid":"6252","displaystopid":"6252","shortname":"North Wall Quay","shortnamelocalized":"Cé an Phoirt Tdh","fullname":"Commons Street","fullnamelocalized":"","latitude":"53.34792","longitude":"-6.246997","operators":[{"name":"bac","routes":["757"]}]},{"stopid":"301","displaystopid":"301","shortname":"Eden Quay","shortnamelocalized":"Cé Éidin","fullname":"Eden Quay","fullnamelocalized":"","latitude":"53.34807611","longitude":"-6.256576944","operators":[{"name":"bac","routes":["757"]}]},{"stopid":"4495","displaystopid":"4495","shortname":"Hawkins Street","shortnamelocalized":"Sráid Hawkins","fullname":"Hawkins Street","fullnamelocalized":"","latitude":"53.34618306","longitude":"-6.256966111","operators":[{"name":"bac","routes":["757"]}]},{"stopid":"2809","displaystopid":"2809","shortname":"Westland Row","shortnamelocalized":"Rae an Iarthair","fullname":"Westland Row","fullnamelocalized":"","latitude":"53.34303","longitude":"-6.249845","operators":[{"name":"bac","routes":["757"]}]},{"stopid":"7612","displaystopid":"7612","shortname":"Merrion Street Lowe","shortnamelocalized":"Cearnóg Sraid Íocht","fullname":"Merrion Street Lower","fullnamelocalized":"","latitude":"53.34139389","longitude":"-6.250388056","operators":[{"name":"bac","routes":["757"]}]},{"stopid":"2811","displaystopid":"2811","shortname":"Merrion Street","shortnamelocalized":"Sráid Mhuirfean","fullname":"Merrion Street","fullnamelocalized":"","latitude":"53.339355","longitude":"-6.252253056","operators":[{"name":"bac","routes":["757"]}]},{"stopid":"842","displaystopid":"842","shortname":"St. Stephen's Green","shortnamelocalized":"Faiche Stiabhna","fullname":"St. Stephen's Green","fullnamelocalized":"","latitude":"53.33724","longitude":"-6.256318889","operators":[{"name":"bac","routes":["757"]}]},{"stopid":"1014","displaystopid":"1014","shortname":"Earlsfort Tce","shortnamelocalized":"Ardn Phort an Iarla","fullname":"Leeson Street","fullnamelocalized":"","latitude":"53.335676","longitude":"-6.257341","operators":[{"name":"bac","routes":["757"]}]},{"stopid":"1015","displaystopid":"1015","shortname":"Adelaide Road","shortnamelocalized":"Bóthar Adelaide","fullname":"Earlsfort Terrace","fullnamelocalized":"","latitude":"53.332728","longitude":"-6.259941","operators":[{"name":"bac","routes":["757"]}]},{"stopid":"1074","displaystopid":"1074","shortname":"Charlotte Way","shortnamelocalized":"Slí Charlotte","fullname":"Camden Court Hotel","fullnamelocalized":"","latitude":"53.33378","longitude":"-6.263919","operators":[{"name":"bac","routes":["757"]}]}]}]}