{"errorcode":"0","errormessage":"","numberofresults":2,"route":"83","timestamp":"30\/07\/2018 10:08:41","results":[{"operator":"bac","origin":"Harristown","originlocalized":"Baile Anraí","destination":"Kimmage","destinationlocalized":"Camaigh","lastupdated":"23\/07\/2018 09:58:38","stops":[{"stopid":"1279","displaystopid":"1279","shortname":"College Green","shortnamelocalized":"Faiche an Choláiste","fullname":"College Green","fullnamelocalized":"","latitude":"53.34420111","longitude":"-6.261696944","operators":[{"name":"bac","routes":["83"]}]},{"stopid":"1283","displaystopid":"1283","shortname":"George's St","shortnamelocalized":"Sr Sheoirse","fullname":"George's St","fullnamelocalized":"","latitude":"53.34180611","longitude":"-6.264921111","operators":[{"name":"bac","routes":["83"]}]},{"stopid":"4456","displaystopid":"4456","shortname":"Aungier Street","shortnamelocalized":"Sráid Aungier","fullname":"Aungier Street","fullnamelocalized":"","latitude":"53.33991194","longitude":"-6.265693056","operators":[{"name":"bac","routes":["83"]}]},{"stopid":"1284","displaystopid":"1284","shortname":"Redmond's Hill","shortnamelocalized":"Cnoc Réamainn","fullname":"Redmond's Hill","fullnamelocalized":"","latitude":"53.33810611","longitude":"-6.265866111","operators":[{"name":"bac","routes":["83"]}]},{"stopid":"1285","displaystopid":"1285","shortname":"Camden St","shortnamelocalized":"Sráid Camden","fullname":"Camden St","fullnamelocalized":"","latitude":"53.33440194","longitude":"-6.265153889","operators":[{"name":"bac","routes":["83"]}]},{"stopid":"1016","displaystopid":"1016","shortname":"Richmond Street","shortnamelocalized":"Sráid Richmond","fullname":"Lennox Street","fullnamelocalized":"","latitude":"53.33113","longitude":"-6.264413","operators":[{"name":"bac","routes":["83"]}]},{"stopid":"1017","displaystopid":"1017","shortname":"Rathmines Road","shortnamelocalized":"Bóthar Ráth Maonais","fullname":"Grove Park","fullnamelocalized":"","latitude":"53.329366","longitude":"-6.264316","operators":[{"name":"bac","routes":["83"]}]},{"stopid":"1018","displaystopid":"1018","shortname":"Rathmines Road","shortnamelocalized":"Bóthar Ráth Maonais","fullname":"Richmond Hill","fullnamelocalized":"","latitude":"53.327567","longitude":"-6.26464","operators":[{"name":"bac","routes":["83"]}]},{"stopid":"1019","displaystopid":"1019","shortname":"Rathmines Road","shortnamelocalized":"Bóthar Ráth Maonais","fullname":"Military Road","fullnamelocalized":"","latitude":"53.326463","longitude":"-6.26484","operators":[{"name":"bac","routes":["83"]}]},{"stopid":"1020","displaystopid":"1020","shortname":"Rathmines Road","shortnamelocalized":"Bóthar Ráth Maonais","fullname":"Town Centre","fullnamelocalized":"","latitude":"53.325077","longitude":"-6.265113","operators":[{"name":"bac","routes":["83"]}]},{"stopid":"1076","displaystopid":"1076","shortname":"Rathmines Road","shortnamelocalized":"Bóthar Ráth Maonais","fullname":"Castlewood Ave","fullnamelocalized":"","latitude":"53.323158","longitude":"-6.265449","operators":[{"name":"bac","routes":["83"]}]},{"stopid":"1077","displaystopid":"1077","shortname":"Rathgar Road","shortnamelocalized":"Bóthar Ráth Garbh","fullname":"Garda Station","fullnamelocalized":"","latitude":"53.321557","longitude":"-6.26656","operators":[{"name":"bac","routes":["83"]}]},{"stopid":"2479","displaystopid":"2479","shortname":"Grosvenor Road","shortnamelocalized":"Bóthar Grosvenor","fullname":"Grosvenor Road","fullnamelocalized":"","latitude":"53.32023694","longitude":"-6.270226944","operators":[{"name":"bac","routes":["83"]}]},{"stopid":"2480","displaystopid":"2480","shortname":"Kenilworth Road","shortnamelocalized":"Bóthar Kenilworth","fullname":"Kenilworth Road","fullnamelocalized":"","latitude":"53.31958694","longitude":"-6.274348889","operators":[{"name":"bac","routes":["83"]}]},{"stopid":"2481","displaystopid":"2481","shortname":"Kenilworth Square","shortnamelocalized":"Cearnóg Kenilworth","fullname":"Kenilworth Square","fullnamelocalized":"","latitude":"53.31873611","longitude":"-6.27808","operators":[{"name":"bac","routes":["83"]}]},{"stopid":"2482","displaystopid":"2482","shortname":"Clareville Road","shortnamelocalized":"Bóthar Clareville","fullname":"Clareville Road","fullnamelocalized":"","latitude":"53.31891806","longitude":"-6.281388889","operators":[{"name":"bac","routes":["83"]}]},{"stopid":"2483","displaystopid":"2483","shortname":"Clareville Road","shortnamelocalized":"Bóthar Clareville","fullname":"Clareville Road","fullnamelocalized":"","latitude":"53.31757194","longitude":"-6.284973889","operators":[{"name":"bac","routes":["83"]}]},{"stopid":"2484","displaystopid":"2484","shortname":"Larkfield Pk","shortnamelocalized":"Pc Ghort na Fuiseoi","fullname":"Larkfield Pk","fullnamelocalized":"","latitude":"53.31853889","longitude":"-6.289141111","operators":[{"name":"bac","routes":["83"]}]},{"stopid":"2485","displaystopid":"2485","shortname":"Sundrive Road","shortnamelocalized":"Bóthar Ghrianréime","fullname":"Sundrive Road","fullnamelocalized":"","latitude":"53.31978611","longitude":"-6.291321111","operators":[{"name":"bac","routes":["83"]}]},{"stopid":"2486","displaystopid":"2486","shortname":"Sundrive Road","shortnamelocalized":"Bóthar Ghrianréime","fullname":"Sundrive Road","fullnamelocalized":"","latitude":"53.32107111","longitude":"-6.293111944","operators":[{"name":"bac","routes":["83"]}]},{"stopid":"2487","displaystopid":"2487","shortname":"Stannaway Rd","shortnamelocalized":"Br Bhóthar na gCloc","fullname":"Stannaway Rd","fullnamelocalized":"","latitude":"53.32180889","longitude":"-6.295275","operators":[{"name":"bac","routes":["83"]}]},{"stopid":"2488","displaystopid":"2488","shortname":"Stannaway Rd","shortnamelocalized":"Br Bhóthar na gCloc","fullname":"Stannaway Rd","fullnamelocalized":"","latitude":"53.32035389","longitude":"-6.298706111","operators":[{"name":"bac","routes":["83"]}]},{"stopid":"2489","displaystopid":"2489","shortname":"Stannaway Rd","shortnamelocalized":"Br Bhóthar na gCloc","fullname":"Stannaway Rd","fullnamelocalized":"","latitude":"53.31956889","longitude":"-6.300426944","operators":[{"name":"bac","routes":["83"]}]},{"stopid":"2448","displaystopid":"2448","shortname":"Cashel Road","shortnamelocalized":"Bóthar Chaisil","fullname":"Cashel Road","fullnamelocalized":"","latitude":"53.31924306","longitude":"-6.304131111","operators":[{"name":"bac","routes":["83"]}]},{"stopid":"5026","displaystopid":"5026","shortname":"Cashel Road","shortnamelocalized":"Bóthar Chaisil","fullname":"Cashel Road","fullnamelocalized":"","latitude":"53.32020694","longitude":"-6.305038889","operators":[{"name":"bac","routes":["83"]}]},{"stopid":"2450","displaystopid":"2450","shortname":"Armagh Road","shortnamelocalized":"Bóthar Ard Mhacha","fullname":"Armagh Road","fullnamelocalized":"","latitude":"53.32022389","longitude":"-6.30766","operators":[{"name":"bac","routes":["83"]}]},{"stopid":"2490","displaystopid":"2490","shortname":"Captain's Road","shortnamelocalized":"Bóthar an Chaptaein","fullname":"Captain's Road","fullnamelocalized":"","latitude":"53.31953889","longitude":"-6.309456111","operators":[{"name":"bac","routes":["83"]}]},{"stopid":"2491","displaystopid":"2491","shortname":"Captain's Road","shortnamelocalized":"Bóthar an Chaptaein","fullname":"Captain's Road","fullnamelocalized":"","latitude":"53.31802611","longitude":"-6.308196944","operators":[{"name":"bac","routes":["83"]}]},{"stopid":"2492","displaystopid":"2492","shortname":"Stannaway Ave","shortnamelocalized":"Asc Bhóthar na gClo","fullname":"Stannaway Ave","fullnamelocalized":"","latitude":"53.31629889","longitude":"-6.307868056","operators":[{"name":"bac","routes":["83"]}]},{"stopid":"324","displaystopid":"324","shortname":"Harristown","shortnamelocalized":"Baile Anraí","fullname":"Harristown","fullnamelocalized":"","latitude":"53.41772111","longitude":"-6.278626111","operators":[{"name":"bac","routes":["83"]}]},{"stopid":"1555","displaystopid":"1555","shortname":"St. Margaret's Road","shortnamelocalized":"Bóthar Mhaighréide","fullname":"St. Margaret's Road","fullnamelocalized":"","latitude":"53.41825111","longitude":"-6.306841944","operators":[{"name":"bac","routes":["83"]}]},{"stopid":"1556","displaystopid":"1556","shortname":"St. Margaret's Road","shortnamelocalized":"Bóthar Mhaighréide","fullname":"St. Margaret's Road","fullnamelocalized":"","latitude":"53.40952389","longitude":"-6.303903889","operators":[{"name":"bac","routes":["83"]}]},{"stopid":"1557","displaystopid":"1557","shortname":"St. Margaret's Road","shortnamelocalized":"Bóthar Mhaighréide","fullname":"St. Margaret's Road","fullnamelocalized":"","latitude":"53.40771111","longitude":"-6.300691111","operators":[{"name":"bac","routes":["83"]}]},{"stopid":"1181","displaystopid":"1181","shortname":"St. Margaret's Road","shortnamelocalized":"Bóthar Mhaighréide","fullname":"St. Margaret's Road","fullnamelocalized":"","latitude":"53.40569694","longitude":"-6.30064","operators":[{"name":"bac","routes":["83"]}]},{"stopid":"7350","displaystopid":"7350","shortname":"St. Margaret's Road","shortnamelocalized":"Bóthar Mhaighréide","fullname":"St. Margaret's Road","fullnamelocalized":"","latitude":"53.40392194","longitude":"-6.301776111","operators":[{"name":"bac","routes":["83"]}]},{"stopid":"6230","displaystopid":"6230","shortname":"Charlestown","shortnamelocalized":"Baile Shéarlais","fullname":"Melville","fullnamelocalized":"","latitude":"53.401391","longitude":"-6.296778","operators":[{"name":"bac","routes":["83"]}]},{"stopid":"6228","displaystopid":"6228","shortname":"Charlestown","shortnamelocalized":"Baile Shéarlais","fullname":"Melville","fullnamelocalized":"","latitude":"53.399857","longitude":"-6.292593","operators":[{"name":"bac","routes":["83"]}]},{"stopid":"4788","displaystopid":"4788","shortname":"Jamestown Rd","shortnamelocalized":"Br Bhaile Shéamais","fullname":"Jamestown Rd","fullnamelocalized":"","latitude":"53.396935","longitude":"-6.292488889","operators":[{"name":"bac","routes":["83"]}]},{"stopid":"6273","displaystopid":"6273","shortname":"Sycamore Rd","shortnamelocalized":"Br an tSeiceamair","fullname":"Oakwood Park","fullnamelocalized":"","latitude":"53.39532","longitude":"-6.290906","operators":[{"name":"bac","routes":["83"]}]},{"stopid":"4891","displaystopid":"4891","shortname":"Grove Road","shortnamelocalized":"Bóthar an Gharráin","fullname":"Grove Road","fullnamelocalized":"","latitude":"53.393105","longitude":"-6.286863056","operators":[{"name":"bac","routes":["83"]}]},{"stopid":"7458","displaystopid":"7458","shortname":"Ballygall Road West","shortnamelocalized":"Bóthar Bhaile Gall","fullname":"Ballygall Road West","fullnamelocalized":"","latitude":"53.39006694","longitude":"-6.290521944","operators":[{"name":"bac","routes":["83"]}]},{"stopid":"7425","displaystopid":"7425","shortname":"Glasanaon Road","shortnamelocalized":"Bóthar Ghlas Naíon","fullname":"Glasanaon Road","fullnamelocalized":"","latitude":"53.38887889","longitude":"-6.292913056","operators":[{"name":"bac","routes":["83"]}]},{"stopid":"7424","displaystopid":"7424","shortname":"Glasanoan Road","shortnamelocalized":"Bothar Ghlas Naíon","fullname":"Glasanoan Road","fullnamelocalized":"","latitude":"53.38800889","longitude":"-6.29201","operators":[{"name":"bac","routes":["83"]}]},{"stopid":"7423","displaystopid":"7423","shortname":"Glasanaon Road","shortnamelocalized":"Bóthar Ghlas Naíon","fullname":"Glasanaon Road","fullnamelocalized":"","latitude":"53.38567","longitude":"-6.288265","operators":[{"name":"bac","routes":["83"]}]},{"stopid":"1566","displaystopid":"1566","shortname":"Glasanaon Road","shortnamelocalized":"Bóthar Ghlas Naíon","fullname":"Glasanaon Road","fullnamelocalized":"","latitude":"53.38440611","longitude":"-6.283851111","operators":[{"name":"bac","routes":["83"]}]},{"stopid":"1567","displaystopid":"1567","shortname":"Glasanaon Road","shortnamelocalized":"Bóthar Ghlas Naíon","fullname":"Glasanaon Road","fullnamelocalized":"","latitude":"53.38401111","longitude":"-6.28025","operators":[{"name":"bac","routes":["83"]}]},{"stopid":"4372","displaystopid":"4372","shortname":"Ballygall Rd East","shortnamelocalized":"Br Bhaile Gall Thoi","fullname":"Ballygall Rd East","fullnamelocalized":"","latitude":"53.38204694","longitude":"-6.276085","operators":[{"name":"bac","routes":["83"]}]},{"stopid":"179","displaystopid":"179","shortname":"Ballygall Rd East","shortnamelocalized":"Br Bhaile Gall Thoi","fullname":"Ballygall Rd East","fullnamelocalized":"","latitude":"53.38029889","longitude":"-6.275993056","operators":[{"name":"bac","routes":["83"]}]},{"stopid":"7431","displaystopid":"7431","shortname":"Griffith Avenue Ext","shortnamelocalized":"","fullname":"Griffith Avenue Extension","fullnamelocalized":"","latitude":"53.37974806","longitude":"-6.279058889","operators":[{"name":"bac","routes":["83"]}]},{"stopid":"175","displaystopid":"175","shortname":"Tolka Estate","shortnamelocalized":"Eastát na Tulchann","fullname":"Tolka Estate","fullnamelocalized":"","latitude":"53.37842694","longitude":"-6.281555","operators":[{"name":"bac","routes":["83"]}]},{"stopid":"176","displaystopid":"176","shortname":"Old Finglas Rd","shortnamelocalized":"Snbr Fhionnghlaise","fullname":"Old Finglas Rd","fullnamelocalized":"","latitude":"53.37803389","longitude":"-6.279281944","operators":[{"name":"bac","routes":["83"]}]},{"stopid":"181","displaystopid":"181","shortname":"Old Finglas Rd","shortnamelocalized":"Snbr Fhionnghlaise","fullname":"Old Finglas Rd","fullnamelocalized":"","latitude":"53.37714806","longitude":"-6.27421","operators":[{"name":"bac","routes":["83"]}]},{"stopid":"182","displaystopid":"182","shortname":"Glasnevin Hill","shortnamelocalized":"Cnoc Ghlas Naíon","fullname":"Glasnevin Hill","fullnamelocalized":"","latitude":"53.375645","longitude":"-6.269881944","operators":[{"name":"bac","routes":["83"]}]},{"stopid":"183","displaystopid":"183","shortname":"Botanic Rd","shortnamelocalized":"Br Gharraithe na Lu","fullname":"Botanic Rd","fullnamelocalized":"","latitude":"53.37231694","longitude":"-6.26874","operators":[{"name":"bac","routes":["83"]}]},{"stopid":"184","displaystopid":"184","shortname":"Botanic Rd","shortnamelocalized":"Br Gharraithe na Lu","fullname":"Botanic Rd","fullnamelocalized":"","latitude":"53.369695","longitude":"-6.268971111","operators":[{"name":"bac","routes":["83"]}]},{"stopid":"185","displaystopid":"185","shortname":"Botanic Rd","shortnamelocalized":"Br Gharraithe na Lu","fullname":"Botanic Rd","fullnamelocalized":"","latitude":"53.36809389","longitude":"-6.270018889","operators":[{"name":"bac","routes":["83"]}]},{"stopid":"186","displaystopid":"186","shortname":"Prospect Road","shortnamelocalized":"Bóthar na Radharc","fullname":"Prospect Road","fullnamelocalized":"","latitude":"53.36535","longitude":"-6.271581944","operators":[{"name":"bac","routes":["83"]}]},{"stopid":"187","displaystopid":"187","shortname":"Phibsboro Road","shortnamelocalized":"Bóthar Bhaile Phib","fullname":"Phibsboro Road","fullnamelocalized":"","latitude":"53.36272611","longitude":"-6.272436944","operators":[{"name":"bac","routes":["83"]}]},{"stopid":"188","displaystopid":"188","shortname":"Phibsboro Road","shortnamelocalized":"Bóthar Bhaile Phib","fullname":"Phibsboro Road","fullnamelocalized":"","latitude":"53.36011389","longitude":"-6.272581111","operators":[{"name":"bac","routes":["83"]}]},{"stopid":"189","displaystopid":"189","shortname":"Phibsboro Road","shortnamelocalized":"Bóthar Bhaile Phib","fullname":"Phibsboro Road","fullnamelocalized":"","latitude":"53.35716306","longitude":"-6.273461944","operators":[{"name":"bac","routes":["83"]}]},{"stopid":"190","displaystopid":"190","shortname":"Phibsboro Road","shortnamelocalized":"Bóthar Bhaile Phib","fullname":"Phibsboro Road","fullnamelocalized":"","latitude":"53.35511889","longitude":"-6.273366111","operators":[{"name":"bac","routes":["83"]}]},{"stopid":"1614","displaystopid":"1614","shortname":"Constitution Hill","shortnamelocalized":"Cn an Bhunreachta","fullname":"Constitution Hill","fullnamelocalized":"","latitude":"53.35125806","longitude":"-6.273745","operators":[{"name":"bac","routes":["83"]}]},{"stopid":"1615","displaystopid":"1615","shortname":"Church Street","shortnamelocalized":"Bóthar an Teampaill","fullname":"Church Street","fullnamelocalized":"","latitude":"53.34782694","longitude":"-6.274593056","operators":[{"name":"bac","routes":["83"]}]},{"stopid":"1478","displaystopid":"1478","shortname":"Inns Quay","shortnamelocalized":"Cé na nÓstaí","fullname":"Inns Quay","fullnamelocalized":"","latitude":"53.34564806","longitude":"-6.272935","operators":[{"name":"bac","routes":["83"]}]},{"stopid":"1479","displaystopid":"1479","shortname":"Ormond Quay","shortnamelocalized":"Cé Urumhan","fullname":"Ormond Quay","fullnamelocalized":"","latitude":"53.34591306","longitude":"-6.269233056","operators":[{"name":"bac","routes":["83"]}]},{"stopid":"315","displaystopid":"315","shortname":"Bachelors Walk","shortnamelocalized":"Siúlán Bhaitsiléir","fullname":"Bachelors Walk","fullnamelocalized":"","latitude":"53.34699389","longitude":"-6.261816111","operators":[{"name":"bac","routes":["83"]}]},{"stopid":"336","displaystopid":"336","shortname":"D'Olier Street","shortnamelocalized":"Sráid D'Olier","fullname":"D'Olier Street","fullnamelocalized":"","latitude":"53.34624694","longitude":"-6.257703056","operators":[{"name":"bac","routes":["83"]}]}]},{"operator":"bac","origin":"Kimmage","originlocalized":"Camaigh","destination":"Harristown","destinationlocalized":"Baile Anraí","lastupdated":"23\/07\/2018 09:58:53","stops":[{"stopid":"2492","displaystopid":"2492","shortname":"Stannaway Ave","shortnamelocalized":"Asc Bhóthar na gClo","fullname":"Stannaway Ave","fullnamelocalized":"","latitude":"53.31629889","longitude":"-6.307868056","operators":[{"name":"bac","routes":["83"]}]},{"stopid":"2493","displaystopid":"2493","shortname":"Captain's Road","shortnamelocalized":"Bóthar an Chaptaein","fullname":"Captain's Road","fullnamelocalized":"","latitude":"53.31832111","longitude":"-6.308626944","operators":[{"name":"bac","routes":["83"]}]},{"stopid":"2465","displaystopid":"2465","shortname":"Armagh Road","shortnamelocalized":"Bóthar Ard Mhacha","fullname":"Armagh Road","fullnamelocalized":"","latitude":"53.31997889","longitude":"-6.308921111","operators":[{"name":"bac","routes":["83"]}]},{"stopid":"2466","displaystopid":"2466","shortname":"Armagh Road","shortnamelocalized":"Bóthar Ard Mhacha","fullname":"Armagh Road","fullnamelocalized":"","latitude":"53.32065306","longitude":"-6.306431111","operators":[{"name":"bac","routes":["83"]}]},{"stopid":"2467","displaystopid":"2467","shortname":"Cashel Road","shortnamelocalized":"Bóthar Chaisil","fullname":"Cashel Road","fullnamelocalized":"","latitude":"53.31923194","longitude":"-6.303915","operators":[{"name":"bac","routes":["83"]}]},{"stopid":"2494","displaystopid":"2494","shortname":"Stannaway Rd","shortnamelocalized":"Br Bhóthar na gCloc","fullname":"Stannaway Rd","fullnamelocalized":"","latitude":"53.319645","longitude":"-6.300561944","operators":[{"name":"bac","routes":["83"]}]},{"stopid":"2495","displaystopid":"2495","shortname":"Stannaway Rd","shortnamelocalized":"Br Bhóthar na gCloc","fullname":"Stannaway Rd","fullnamelocalized":"","latitude":"53.32124306","longitude":"-6.296821111","operators":[{"name":"bac","routes":["83"]}]},{"stopid":"2496","displaystopid":"2496","shortname":"Sundrive Road","shortnamelocalized":"Bóthar Ghrianréime","fullname":"Sundrive Road","fullnamelocalized":"","latitude":"53.32200306","longitude":"-6.2939","operators":[{"name":"bac","routes":["83"]}]},{"stopid":"2497","displaystopid":"2497","shortname":"Sundrive Road","shortnamelocalized":"Bóthar Ghrianréime","fullname":"Sundrive Road","fullnamelocalized":"","latitude":"53.32032389","longitude":"-6.291883889","operators":[{"name":"bac","routes":["83"]}]},{"stopid":"2471","displaystopid":"2471","shortname":"Larkfield Pk","shortnamelocalized":"Pc Ghort na Fuiseoi","fullname":"Larkfield Pk","fullnamelocalized":"","latitude":"53.31878694","longitude":"-6.289146111","operators":[{"name":"bac","routes":["83"]}]},{"stopid":"2472","displaystopid":"2472","shortname":"Clareville Road","shortnamelocalized":"Bóthar Clareville","fullname":"Clareville Road","fullnamelocalized":"","latitude":"53.317675","longitude":"-6.28559","operators":[{"name":"bac","routes":["83"]}]},{"stopid":"2473","displaystopid":"2473","shortname":"Clareville Road","shortnamelocalized":"Bóthar Clareville","fullname":"Clareville Road","fullnamelocalized":"","latitude":"53.31789611","longitude":"-6.283463056","operators":[{"name":"bac","routes":["83"]}]},{"stopid":"2474","displaystopid":"2474","shortname":"Clareville Road","shortnamelocalized":"Bóthar Clareville","fullname":"Clareville Road","fullnamelocalized":"","latitude":"53.31869694","longitude":"-6.281953889","operators":[{"name":"bac","routes":["83"]}]},{"stopid":"2475","displaystopid":"2475","shortname":"Kenilworth Park","shortnamelocalized":"Páirc Kenilworth","fullname":"Kenilworth Park","fullnamelocalized":"","latitude":"53.31886194","longitude":"-6.280073056","operators":[{"name":"bac","routes":["83"]}]},{"stopid":"2476","displaystopid":"2476","shortname":"Kenilworth Square","shortnamelocalized":"Cearnóg Kenilworth","fullname":"Kenilworth Square","fullnamelocalized":"","latitude":"53.319035","longitude":"-6.277633889","operators":[{"name":"bac","routes":["83"]}]},{"stopid":"2477","displaystopid":"2477","shortname":"Kenilworth Road","shortnamelocalized":"Bóthar Kenilworth","fullname":"Kenilworth Road","fullnamelocalized":"","latitude":"53.31985806","longitude":"-6.274343889","operators":[{"name":"bac","routes":["83"]}]},{"stopid":"2478","displaystopid":"2478","shortname":"Grosvenor Road","shortnamelocalized":"Bóthar Grosvenor","fullname":"Grosvenor Road","fullnamelocalized":"","latitude":"53.32053389","longitude":"-6.269726111","operators":[{"name":"bac","routes":["83"]}]},{"stopid":"1170","displaystopid":"1170","shortname":"Rathgar Road","shortnamelocalized":"Bóthar Ráth Garbh","fullname":"Rathmines Road","fullnamelocalized":"","latitude":"53.321679","longitude":"-6.26653","operators":[{"name":"bac","routes":["83"]}]},{"stopid":"1069","displaystopid":"1069","shortname":"Rathmines Road","shortnamelocalized":"Bóthar Ráth Maonais","fullname":"Leinster Road","fullnamelocalized":"","latitude":"53.323288","longitude":"-6.265598","operators":[{"name":"bac","routes":["83"]}]},{"stopid":"1070","displaystopid":"1070","shortname":"Rathmines Road","shortnamelocalized":"Bóthar Ráth Maonais","fullname":"Williams Park","fullnamelocalized":"","latitude":"53.324969","longitude":"-6.2653","operators":[{"name":"bac","routes":["83"]}]},{"stopid":"1071","displaystopid":"1071","shortname":"Rathmines Road","shortnamelocalized":"Bóthar Ráth Maonais","fullname":"Military Road","fullnamelocalized":"","latitude":"53.32729","longitude":"-6.26485","operators":[{"name":"bac","routes":["83"]}]},{"stopid":"4528","displaystopid":"4528","shortname":"Rathmines Road","shortnamelocalized":"Bóthar Ráth Maonais","fullname":"Rathmines Road","fullnamelocalized":"","latitude":"53.32886111","longitude":"-6.264568889","operators":[{"name":"bac","routes":["83"]}]},{"stopid":"1072","displaystopid":"1072","shortname":"Richmond Street","shortnamelocalized":"Sráid Richmond","fullname":"Lennox Street","fullnamelocalized":"","latitude":"53.331036","longitude":"-6.264575","operators":[{"name":"bac","routes":["83"]}]},{"stopid":"1352","displaystopid":"1352","shortname":"Camden Street","shortnamelocalized":"Sráid Camden","fullname":"Camden Street","fullnamelocalized":"","latitude":"53.334445","longitude":"-6.265386944","operators":[{"name":"bac","routes":["83"]}]},{"stopid":"1353","displaystopid":"1353","shortname":"Camden Street","shortnamelocalized":"Sráid Camden","fullname":"Camden Street","fullnamelocalized":"","latitude":"53.33601","longitude":"-6.265415","operators":[{"name":"bac","routes":["83"]}]},{"stopid":"1355","displaystopid":"1355","shortname":"Aungier Street","shortnamelocalized":"Sráid Aungier","fullname":"Aungier Street","fullnamelocalized":"","latitude":"53.34009194","longitude":"-6.265835","operators":[{"name":"bac","routes":["83"]}]},{"stopid":"1357","displaystopid":"1357","shortname":"George's St","shortnamelocalized":"Sr Sheoirse","fullname":"George's St","fullnamelocalized":"","latitude":"53.34258611","longitude":"-6.264568056","operators":[{"name":"bac","routes":["83"]}]},{"stopid":"1359","displaystopid":"1359","shortname":"College Green","shortnamelocalized":"Faiche an Choláiste","fullname":"College Green","fullnamelocalized":"","latitude":"53.34441806","longitude":"-6.261423056","operators":[{"name":"bac","routes":["83"]}]},{"stopid":"319","displaystopid":"319","shortname":"Westmoreland Street","shortnamelocalized":"Sráid Westmoreland","fullname":"Westmoreland Street","fullnamelocalized":"","latitude":"53.34596694","longitude":"-6.259276944","operators":[{"name":"bac","routes":["83"]}]},{"stopid":"1443","displaystopid":"1443","shortname":"Essex Quay","shortnamelocalized":"Cé Essex","fullname":"Essex Quay","fullnamelocalized":"","latitude":"53.345125","longitude":"-6.269528056","operators":[{"name":"bac","routes":["83"]}]},{"stopid":"1616","displaystopid":"1616","shortname":"Church Street","shortnamelocalized":"Bóthar an Teampaill","fullname":"Church Street","fullnamelocalized":"","latitude":"53.34728389","longitude":"-6.275021944","operators":[{"name":"bac","routes":["83"]}]},{"stopid":"1617","displaystopid":"1617","shortname":"Church Street","shortnamelocalized":"Bóthar an Teampaill","fullname":"Church Street","fullnamelocalized":"","latitude":"53.34917111","longitude":"-6.27482","operators":[{"name":"bac","routes":["83"]}]},{"stopid":"1618","displaystopid":"1618","shortname":"Church Street","shortnamelocalized":"Bóthar an Teampaill","fullname":"Church Street","fullnamelocalized":"","latitude":"53.350885","longitude":"-6.274246111","operators":[{"name":"bac","routes":["83"]}]},{"stopid":"1619","displaystopid":"1619","shortname":"Constitution Hill","shortnamelocalized":"Cnoc an Bhunreachta","fullname":"Constitution Hill","fullnamelocalized":"","latitude":"53.35290889","longitude":"-6.273221111","operators":[{"name":"bac","routes":["83"]}]},{"stopid":"195","displaystopid":"195","shortname":"Phibsboro Road","shortnamelocalized":"Bóthar Bhaile Phib","fullname":"Phibsboro Road","fullnamelocalized":"","latitude":"53.355","longitude":"-6.2735","operators":[{"name":"bac","routes":["83"]}]},{"stopid":"196","displaystopid":"196","shortname":"Phibsboro Road","shortnamelocalized":"Bóthar Bhaile Phib","fullname":"Phibsboro Road","fullnamelocalized":"","latitude":"53.35687806","longitude":"-6.273738056","operators":[{"name":"bac","routes":["83"]}]},{"stopid":"197","displaystopid":"197","shortname":"Phibsboro Road","shortnamelocalized":"Bóthar Bhaole Phib","fullname":"Phibsboro Road","fullnamelocalized":"","latitude":"53.35894889","longitude":"-6.273225","operators":[{"name":"bac","routes":["83"]}]},{"stopid":"198","displaystopid":"198","shortname":"Phibsboro Road","shortnamelocalized":"Bóthar Bhaile Phib","fullname":"Phibsboro Road","fullnamelocalized":"","latitude":"53.36162111","longitude":"-6.272835","operators":[{"name":"bac","routes":["83"]}]},{"stopid":"199","displaystopid":"199","shortname":"Phibsboro Road","shortnamelocalized":"Bóthar Bhaile Phib","fullname":"Phibsboro Road","fullnamelocalized":"","latitude":"53.363615","longitude":"-6.272286111","operators":[{"name":"bac","routes":["83"]}]},{"stopid":"200","displaystopid":"200","shortname":"Prospect Way","shortnamelocalized":"Slí na Radharc","fullname":"Prospect Way","fullnamelocalized":"","latitude":"53.36741889","longitude":"-6.271593889","operators":[{"name":"bac","routes":["83"]}]},{"stopid":"201","displaystopid":"201","shortname":"Botanic Rd","shortnamelocalized":"Br Gharraithe na Lu","fullname":"Botanic Rd","fullnamelocalized":"","latitude":"53.36828","longitude":"-6.270108056","operators":[{"name":"bac","routes":["83"]}]},{"stopid":"202","displaystopid":"202","shortname":"Botanic Rd","shortnamelocalized":"Br Gharraithe na Lu","fullname":"Botanic Rd","fullnamelocalized":"","latitude":"53.37007389","longitude":"-6.268898056","operators":[{"name":"bac","routes":["83"]}]},{"stopid":"151","displaystopid":"151","shortname":"Botanic Rd","shortnamelocalized":"Br Gharraithe na Lu","fullname":"Botanic Rd","fullnamelocalized":"","latitude":"53.37195806","longitude":"-6.269291111","operators":[{"name":"bac","routes":["83"]}]},{"stopid":"153","displaystopid":"153","shortname":"Glasnevin Hill","shortnamelocalized":"Cnoc Ghlas Naíon","fullname":"Glasnevin Hill","fullnamelocalized":"","latitude":"53.37573611","longitude":"-6.270073056","operators":[{"name":"bac","routes":["83"]}]},{"stopid":"154","displaystopid":"154","shortname":"Old Finglas Rd","shortnamelocalized":"Snbr Fhionnghlaise","fullname":"Old Finglas Rd","fullnamelocalized":"","latitude":"53.37726306","longitude":"-6.275538889","operators":[{"name":"bac","routes":["83"]}]},{"stopid":"155","displaystopid":"155","shortname":"Old Finglas Rd","shortnamelocalized":"Snbr Fhionnghlaise","fullname":"Old Finglas Rd","fullnamelocalized":"","latitude":"53.37787","longitude":"-6.279563056","operators":[{"name":"bac","routes":["83"]}]},{"stopid":"156","displaystopid":"156","shortname":"Tolka Estate","shortnamelocalized":"Eastát na Tulchann","fullname":"Tolka Estate","fullnamelocalized":"","latitude":"53.37862306","longitude":"-6.28166","operators":[{"name":"bac","routes":["83"]}]},{"stopid":"7430","displaystopid":"7430","shortname":"Griffith Avenue Ext","shortnamelocalized":"","fullname":"Griffith Avenue Extension","fullnamelocalized":"","latitude":"53.37985611","longitude":"-6.279986111","operators":[{"name":"bac","routes":["83"]}]},{"stopid":"177","displaystopid":"177","shortname":"Ballygall Rd East","shortnamelocalized":"Br Bhaile Gall Thoi","fullname":"Ballygall Rd East","fullnamelocalized":"","latitude":"53.38046889","longitude":"-6.276206111","operators":[{"name":"bac","routes":["83"]}]},{"stopid":"178","displaystopid":"178","shortname":"Ballygall Rd East","shortnamelocalized":"Br Bhaile Gall Thoi","fullname":"Ballygall Rd East","fullnamelocalized":"","latitude":"53.381885","longitude":"-6.276331944","operators":[{"name":"bac","routes":["83"]}]},{"stopid":"1539","displaystopid":"1539","shortname":"Glasanaon Road","shortnamelocalized":"Bóthar Ghlas Naíon","fullname":"Glasanaon Road","fullnamelocalized":"","latitude":"53.38313389","longitude":"-6.279188056","operators":[{"name":"bac","routes":["83"]}]},{"stopid":"1540","displaystopid":"1540","shortname":"Glasanaon Road","shortnamelocalized":"Bóthar Ghlas Naíon","fullname":"Glasanaon Road","fullnamelocalized":"","latitude":"53.384335","longitude":"-6.284181111","operators":[{"name":"bac","routes":["83"]}]},{"stopid":"7426","displaystopid":"7426","shortname":"Glasanaon Road","shortnamelocalized":"Bóthar Ghlas Naíon","fullname":"Glasanaon Road","fullnamelocalized":"","latitude":"53.38545611","longitude":"-6.288046111","operators":[{"name":"bac","routes":["83"]}]},{"stopid":"7427","displaystopid":"7427","shortname":"Glasanaon Road","shortnamelocalized":"Bóthar Ghlas Naíon","fullname":"Glasanaon Road","fullnamelocalized":"","latitude":"53.38779306","longitude":"-6.292076944","operators":[{"name":"bac","routes":["83"]}]},{"stopid":"7428","displaystopid":"7428","shortname":"Glasanaon Road","shortnamelocalized":"Bothar Ghlas Naíon","fullname":"Glasanaon Road","fullnamelocalized":"","latitude":"53.38908889","longitude":"-6.293226944","operators":[{"name":"bac","routes":["83"]}]},{"stopid":"138","displaystopid":"138","shortname":"Ballygall Road West","shortnamelocalized":"Bóthar Bhaile Gall","fullname":"Ballygall Road West","fullnamelocalized":"","latitude":"53.38992","longitude":"-6.292333056","operators":[{"name":"bac","routes":["83"]}]},{"stopid":"133","displaystopid":"133","shortname":"Grove Park Road","shortnamelocalized":"Bóthar Pháirc an Gh","fullname":"Grove Park Road","fullnamelocalized":"","latitude":"53.39079111","longitude":"-6.286286111","operators":[{"name":"bac","routes":["83"]}]},{"stopid":"134","displaystopid":"134","shortname":"Sycamore Rd","shortnamelocalized":"Br an tSeiceamair","fullname":"Sycamore Rd","fullnamelocalized":"","latitude":"53.39309306","longitude":"-6.286061111","operators":[{"name":"bac","routes":["83"]}]},{"stopid":"4890","displaystopid":"4890","shortname":"Sycamore Rd","shortnamelocalized":"Br an tSeiceamair","fullname":"Sycamore Rd","fullnamelocalized":"","latitude":"53.39516","longitude":"-6.290848889","operators":[{"name":"bac","routes":["83"]}]},{"stopid":"4369","displaystopid":"4369","shortname":"Jamestown Rd","shortnamelocalized":"Br Bhaile Shéamais","fullname":"Jamestown Rd","fullnamelocalized":"","latitude":"53.39722","longitude":"-6.292428889","operators":[{"name":"bac","routes":["83"]}]},{"stopid":"6219","displaystopid":"6219","shortname":"Charlestown","shortnamelocalized":"Baile Shéarlais","fullname":"Melville","fullnamelocalized":"","latitude":"53.399888","longitude":"-6.293385","operators":[{"name":"bac","routes":["83"]}]},{"stopid":"6229","displaystopid":"6229","shortname":"Charlestown","shortnamelocalized":"Baile Shéarlais","fullname":"Melville","fullnamelocalized":"","latitude":"53.402052","longitude":"-6.298603","operators":[{"name":"bac","routes":["83"]}]},{"stopid":"6348","displaystopid":"6348","shortname":"St. Margaret's Road","shortnamelocalized":"Bóthar Mhaighréide","fullname":"St. Margaret's Road","fullnamelocalized":"","latitude":"53.403495","longitude":"-6.302398889","operators":[{"name":"bac","routes":["83"]}]},{"stopid":"1182","displaystopid":"1182","shortname":"St. Margaret's Road","shortnamelocalized":"Bóthar Mhaighréide","fullname":"St. Margaret's Road","fullnamelocalized":"","latitude":"53.40561306","longitude":"-6.300911111","operators":[{"name":"bac","routes":["83"]}]},{"stopid":"1550","displaystopid":"1550","shortname":"St. Margaret's Road","shortnamelocalized":"Bóthar Mhaighréide","fullname":"St. Margaret's Road","fullnamelocalized":"","latitude":"53.40751806","longitude":"-6.300691111","operators":[{"name":"bac","routes":["83"]}]},{"stopid":"1551","displaystopid":"1551","shortname":"St. Margaret's Road","shortnamelocalized":"Bóthar Mhaighréide","fullname":"St. Margaret's Road","fullnamelocalized":"","latitude":"53.40969694","longitude":"-6.304641944","operators":[{"name":"bac","routes":["83"]}]},{"stopid":"1552","displaystopid":"1552","shortname":"St. Margaret's Road","shortnamelocalized":"Bóthar Mhaighréide","fullname":"St. Margaret's Road","fullnamelocalized":"","latitude":"53.41911389","longitude":"-6.307001944","operators":[{"name":"bac","routes":["83"]}]},{"stopid":"332","displaystopid":"332","shortname":"Harristown","shortnamelocalized":"Baile Anraí","fullname":"Harristown","fullnamelocalized":"","latitude":"53.41735306","longitude":"-6.27853","operators":[{"name":"bac","routes":["83"]}]}]}]}